gbifID,locality,individualCount,decimalLatitude,decimalLongitude,eventDate,year,month
3538577516,Smithers--Riverfront Park,110.0,54.785133,-127.15145,2021-03-31,2021.0,3.0
2062585211,Wycliffe--Foster Rd North,52.0,49.626137,-115.85371,2017-06-14,2017.0,6.0
4323387938,Home Garden,3.0,49.11534,-122.74698,2022-09-24,2022.0,9.0
272038937,Haynes Point Provincial Park,4.0,49.01472,-119.45556,1990-03-16,1990.0,3.0
582793606,Grindrod - Riverside Road,52.0,50.673454,-119.08047,2011-12-18,2011.0,12.0
582811442,West Kelowna--Mouth of Powers Creek,88.0,49.815502,-119.62352,2011-03-13,2011.0,3.0
824010538,Blaeberry--Kettleson Pond & Road,16.0,51.431026,-117.02161,2012-05-14,2012.0,5.0
4231696424,Saanich--Panama Flats,20.0,48.476334,-123.4029,2022-06-03,2022.0,6.0
4393355416,Okanagan Falls- KVR trail North,12.0,49.354454,-119.580536,2022-06-25,2022.0,6.0
2718006880,Colony Farm,15.0,49.23429,-122.79964,2018-11-17,2018.0,11.0
2696815894,Reifel Bird Sanctuary,37.0,49.1,-123.185,2019-09-15,2019.0,9.0
3243130219,Seawall,1.0,49.175274,-123.94164,2020-04-16,2020.0,4.0
2126805724,French Creek mouth,12.0,49.3485,-124.360085,2018-02-13,2018.0,2.0
3249070187,Squamish River Estuary,40.0,49.70507,-123.17841,2020-08-04,2020.0,8.0
2146746153,North Vancouver--Maplewood Conservation Area,9.0,49.305843,-123.00034,2018-05-07,2018.0,5.0
2203167688,Puckle and Lamont Roads,350.0,48.577755,-123.389725,2018-09-20,2018.0,9.0
2127397004,Osooyos Lake,,49.057446,-119.48495,2018-01-07,2018.0,1.0
3630457554,Newlands,8.0,54.1106,-122.176575,2021-04-29,2021.0,4.0
2090316226,Burnaby Lake Regional Park (general),40.0,49.24299,-122.944046,2017-10-30,2017.0,10.0
1771233328,Salmon Arm Bay (General),500.0,50.709747,-119.28043,2016-11-05,2016.0,11.0
1726159613,"Latoria Road gravel pit, Colwood",20.0,48.4057,-123.49302,2016-04-08,2016.0,4.0
3542553525,Kelowna--Robert Lake,14.0,49.93562,-119.408905,2021-05-09,2021.0,5.0
2186459692,Delta—Westham Island,200.0,49.08834,-123.14819,1981-03-08,1981.0,3.0
4367452966,Blenkinsop--Lohbrunner Rd East,6.0,48.49181,-123.35887,2022-05-30,2022.0,5.0
2143610880,Vernon--Otter Lake Road,1100.0,50.39237,-119.2678,2018-03-28,2018.0,3.0
3539725763,Victoria--Blenkinsop Lake,5.0,48.483448,-123.3605,2021-05-15,2021.0,5.0
3651301509,Kitimat--Minette Bay,40.0,54.006916,-128.64056,2021-10-31,2021.0,10.0
1346275849,Central Saanich--ȾIKEL (Maber Flats),400.0,48.572468,-123.43052,2015-01-16,2015.0,1.0
2675064234,Cranbrook--Idlewild Park,2.0,49.4991,-115.729904,2019-03-25,2019.0,3.0
2670707120,"Courtenay--Comox Harbour, 31st St",25.0,49.670593,-124.9765,2019-05-05,2019.0,5.0
4330710503,Saanich--Panama Flats,10.0,48.476334,-123.4029,2022-08-05,2022.0,8.0
2063365702,Blaeberry--Goldenwood Lodge,1.0,51.445663,-116.99787,2017-05-07,2017.0,5.0
3134163211,"100 Esplanade Ave, Harrison Hot Springs CA-BC (49.3041,-121.7900)",90.0,49.304073,-121.79003,2020-01-05,2020.0,1.0
4278136523,Reifel Bird Sanctuary,50.0,49.1,-123.185,2005-10-23,2005.0,10.0
2217877376,Rocky Point Bird Observatory (restricted access),17.0,48.3198,-123.54715,2018-08-26,2018.0,8.0
3245338280,Squamish River Estuary -- East (of central channel),40.0,49.690567,-123.16406,2020-08-02,2020.0,8.0
3562482353,Lumby--Rawlings Lake,14.0,50.27456,-118.87657,2021-05-13,2021.0,5.0
226975160,V3H 4P9 Belcarra,,49.31411,-122.87624,2009-02-15,2009.0,2.0
167174500,Trinity Western University,20.0,49.140835,-122.59611,2005-02-14,2005.0,2.0
3280254300,Iona Island (General),20.0,49.22133,-123.2111,2020-12-18,2020.0,12.0
2225872209,Sandspit--airport,350.0,53.259003,-131.82152,2018-11-08,2018.0,11.0
3209475997,Central Saanich--ȾIKEL (Maber Flats),72.0,48.572468,-123.43052,2020-10-24,2020.0,10.0
823550620,Redwing Rd.,1.0,52.970673,-122.42436,2012-04-10,2012.0,4.0
1714301255,Vernon—Otter Lake,4.0,50.412464,-119.248764,2016-02-07,2016.0,2.0
581477065,North Vancouver--Maplewood Conservation Area,2.0,49.305843,-123.00034,2011-05-10,2011.0,5.0
2747013846,Nelson--waterfront,75.0,49.498905,-117.291245,2019-03-13,2019.0,3.0
1760454539,"Boundary Bay - 96th to 104th Sts., Delta",20.0,49.07305,-122.9485,2016-09-10,2016.0,9.0
3160611330,Iona Island (General),4.0,49.22133,-123.2111,2020-04-14,2020.0,4.0
2188136701,Cheam Lake Wetlands Regional Park,14.0,49.195557,-121.7525,2018-08-05,2018.0,8.0
4365329029,"700–778 Mariner Way, Nanaimo CA-BC 49.33105, -124.28900",51.0,49.33105,-124.289,2022-08-25,2022.0,8.0
3160135426,Wasa Sloughs,6.0,49.751667,-115.72722,2020-05-09,2020.0,5.0
167212579,Serpentine River Trail,28.0,49.08803,-122.83488,1994-05-22,1994.0,5.0
1357682484,Vancouver--Jericho Park,,49.27159,-123.194374,2015-03-22,2015.0,3.0
2251870718,,,49.222955,-124.027569,2019-04-23T17:41,2019.0,4.0
3355740699,,,49.195515,-121.752418,2021-09-02T11:34,2021.0,9.0
3574573095,Cedar,200.0,49.111458,-123.86768,2021-09-27,2021.0,9.0
2761279591,Boundary Bay Regional Park,40.0,49.01818,-123.04611,2019-07-16,2019.0,7.0
3560650227,Fenwick Road,8.0,49.50743,-115.5339,2021-04-22,2021.0,4.0
3512433754,"Little Shuswap Band ""Skwlax"" East End Mudflats and North Riparian",250.0,50.8777,-119.622635,2021-01-15,2021.0,1.0
580188515,Port Alberni--Somass Estuary & sewage lagoons,240.0,49.25543,-124.837234,2010-11-08,2010.0,11.0
1913165382,,,50.79338,-120.442721,2018-09-07T11:48,2018.0,9.0
2653791530,1st Pond end of Nelthorpe Street,2.0,48.46656,-123.37018,2019-01-07,2019.0,1.0
4308763717,Silver Lake PP,20.0,49.3174,-121.41111,2022-06-22,2022.0,6.0
3536857692,Nanaimo--Buttertubs Marsh,8.0,49.170925,-123.970764,2021-04-22,2021.0,4.0
1201839612,Castlegar--Selkirk College Trails,35.0,49.30996,-117.64791,2014-07-04,2014.0,7.0
4353914862,Oak Bay--Turkey Head/Queen's Park,2.0,48.424488,-123.30104,2022-12-27,2022.0,12.0
2204632658,Salmon Arm Bay (General),105.0,50.709747,-119.28043,2018-10-06,2018.0,10.0
3612737280,Martindale Flats--McIntyre Reservoir,,48.56911,-123.379814,2021-01-06,2021.0,1.0
3685328957,Cheam Lake Wetlands Regional Park,5.0,49.195557,-121.7525,2021-05-01,2021.0,5.0
4351212313,Martindale Flats--McIntyre Reservoir,150.0,48.56911,-123.379814,2022-03-19,2022.0,3.0
2654228967,Pender Island - Hooson Heights,46.0,48.795364,-123.270134,2019-01-31,2019.0,1.0
3581147519,"Elk Lake, Victoria",80.0,48.535557,-123.39139,2021-08-18,2021.0,8.0
2191726590,Iona Island (General),3.0,49.22133,-123.2111,2018-08-20,2018.0,8.0
4366222002,Royal Roads University,35.0,48.430397,-123.47345,2022-04-07,2022.0,4.0
2673252504,"Swan Lake Nature Sanctuary, Victoria",48.0,48.464558,-123.3738,2019-05-02,2019.0,5.0
946392624,"Swan Lake Nature Sanctuary, Victoria",5.0,48.464558,-123.3738,2013-04-07,2013.0,4.0
2210363000,Ucluelet pelagic trip,4.0,48.839413,-125.64926,2018-08-06,2018.0,8.0
167176651,Priest's Valley,99.0,50.24545,-119.343796,2006-11-24,2006.0,11.0
2768638811,Salmon Arm Bay (General),200.0,50.709747,-119.28043,2019-09-10,2019.0,9.0
4214929057,Victoria--McMicking Point,28.0,48.409428,-123.30334,2022-02-14,2022.0,2.0
1370770347,Stanley Park--Lost Lagoon,,49.29563,-123.140305,2015-05-23,2015.0,5.0
1776686015,Nanaimo--Buttertubs Marsh,,49.170925,-123.970764,2016-11-27,2016.0,11.0
3643450423,Munn Rd powerline,4.0,48.491226,-123.4451,2021-04-18,2021.0,4.0
3664631631,Squamish River Estuary -- East (of central channel),43.0,49.690567,-123.16406,2021-01-27,2021.0,1.0
3606030695,Kelowna--Rotary Marsh,3.0,49.895695,-119.50002,2021-04-01,2021.0,4.0
1359971805,Maplewood 08,2.0,49.302345,-123.00661,2015-04-04,2015.0,4.0
3551844801,Riske Creek--Separating Lake,36.0,51.97116,-122.50047,2021-04-05,2021.0,4.0
2768537913,Peter Hope Lake,42.0,50.30109,-120.31863,2019-07-06,2019.0,7.0
2048044386,Royal Roads University,6.0,48.430397,-123.47345,2017-03-19,2017.0,3.0
2748090174,"Clark Drive, Burton, British Columbia, CA (49.984, -117.883)",48.0,49.984314,-117.8833,2019-08-12,2019.0,8.0
3682174591,Victoria--Blenkinsop Lake,8.0,48.483448,-123.3605,2021-06-05,2021.0,6.0
3168688742,Nanaimo--Westwood Lake,12.0,49.162407,-123.997086,2020-06-30,2020.0,6.0
1174851905,V1E3Z7,16.0,50.712452,-119.26558,2014-05-31,2014.0,5.0
2082903175,Boundary Bay Regional Park,200.0,49.01818,-123.04611,2017-09-24,2017.0,9.0
2061762002,Iona Island Causeway,55.0,49.212776,-123.2025,2017-04-17,2017.0,4.0
4362213499,Sea Island (general),60.0,49.20626,-123.18586,2022-04-16,2022.0,4.0
824374122,"Tofino, Sharp Road Lookout",90.0,49.123657,-125.88418,2012-03-16,2012.0,3.0
2796906570,Campbell River,,50.035892,-125.24169,2012-08-24,2012.0,8.0
1751836757,South Okanagan--General Location,200.0,49.23529,-119.53239,2016-07-19,2016.0,7.0
2075253103,Hwy 97B--97A/B junction to Salmon Arm,23.0,50.675957,-119.21629,2017-08-16,2017.0,8.0
2691327686,Castlegar--Selkirk College Trails,21.0,49.30996,-117.64791,2019-05-20,2019.0,5.0
1765360119,Blaeberry--north delta View,10.0,51.434895,-117.0741,2016-10-03,2016.0,10.0
3247874659,Abbotsford--Willband Creek Park,35.0,49.07065,-122.28117,2020-04-09,2020.0,4.0
4376371256,Gellatly Bay Park,125.0,49.821808,-119.61925,2022-11-12,2022.0,11.0
2093078906,"Amherst Ave, Waterfront Sidney",50.0,48.658,-123.39319,2017-08-19,2017.0,8.0
3279000425,Athalmer Sloughs,30.0,50.524776,-116.03297,2020-11-28,2020.0,11.0
2120248929,Penticton--IR Locatee Land,30.0,49.489098,-119.61579,2018-01-13,2018.0,1.0
824026144,North Vancouver--Maplewood Conservation Area,390.0,49.305843,-123.00034,2012-07-18,2012.0,7.0
821577702,Blaeberry--Holmes-Deakin,10.0,51.445328,-117.01609,2004-05-25,2004.0,5.0
210626328,Kelowna--Maude-Roxby Sanctuary,2.0,49.870506,-119.49701,2006-04-04,2006.0,4.0
945827600,Blaeberry--Holmes-Deakin,,51.445328,-117.01609,1997-10-29,1997.0,10.0
937534982,West Vancouver--Kloochman Park,2.0,49.34037,-123.26826,2013-02-01,2013.0,2.0
4261286781,"CA-BC-Tunkwa Provincial Park - 50.6118x-120.8476 - May 20, 2016, 4:14 PM",14.0,50.61175,-120.84762,2022-06-01,2022.0,6.0
2173004193,Minnekhada Regional Park,20.0,49.297222,-122.69972,2018-05-23,2018.0,5.0
1371141163,Valemount--Starratt Wildlife Sanctuary (Cranberry Marsh),35.0,52.814243,-119.2623,2015-05-26,2015.0,5.0
2762109356,Golden--9-mile slough,14.0,51.196716,-116.87513,2019-04-16,2019.0,4.0
2668603841,Kelowna--Robert Lake,80.0,49.93562,-119.408905,2019-04-11,2019.0,4.0
3522551745,estuary,48.0,49.699356,-123.16757,2021-05-22,2021.0,5.0
4374699620,Okanagan Mountain Park--north,2.0,49.76322,-119.62363,2022-06-04,2022.0,6.0
167230533,CAN - BC - Bacchus,4.0,51.893856,-121.53176,2007-07-25,2007.0,7.0
3560621676,"Nicklaus North Golf Course and Table Nineteen, Whistler CA-BC 50.14292, -122.94858",8.0,50.142925,-122.948586,2021-04-04,2021.0,4.0
2739232927,Portage Inlet,2.0,48.46027,-123.419426,2019-03-01,2019.0,3.0
1192968608,Lillooet--Seton Lake,6.0,50.668766,-121.98866,2002-04-11,2002.0,4.0
2227372411,Rocky Point Bird Observatory (restricted access),3.0,48.3198,-123.54715,2017-08-28,2017.0,8.0
3299597978,North Vancouver--Maplewood Conservation Area,19.0,49.305843,-123.00034,2020-12-02,2020.0,12.0
2056432940,Saanichton Spit (TIXEN) (Access restricted during COVID),2.0,48.58966,-123.372246,2017-04-20,2017.0,4.0
2751066390,Bottom Wood Lake - s of Berry Rd.,150.0,50.026592,-119.3977,2019-01-26,2019.0,1.0
2082586475,Central Saanich--ȾIKEL (Maber Flats),18.0,48.572468,-123.43052,2017-07-19,2017.0,7.0
130056355,Taghum,,49.491547,-117.39913,1998-05-12,1998.0,5.0
3683050671,Kelowna--Tutt's Pond,4.0,49.942337,-119.413574,2021-04-15,2021.0,4.0
3150275767,Kelowna--Capital News Centre/Thomson Brook Pond,5.0,49.83433,-119.482,2020-04-29,2020.0,4.0
3531047088,3415 Kelsey Road,6.0,49.533787,-124.81653,2021-05-30,2021.0,5.0
2052924345,Kitimat river,4.0,54.117046,-128.61952,2017-05-13,2017.0,5.0
2049865610,Somenos Marsh--Boardwalk,75.0,48.79121,-123.70926,2017-05-05,2017.0,5.0
581344619,BC - Smithers - Rail trail,9.0,54.78942,-127.19176,2011-03-25,2011.0,3.0
4294428143,Great Blue Heron Nature Reserve,6.0,49.09632,-122.04541,2022-02-21,2022.0,2.0
129992578,Vaseux Lake Bird Observatory--old site,20.0,49.30339,-119.53758,1998-09-24,1998.0,9.0
965073668,burgoyne bay,25.0,48.780388,-123.509674,2013-09-11,2013.0,9.0
2203408247,Kelowna--Munson Pond,,49.864048,-119.46036,2018-09-20,2018.0,9.0
4239015017,Richie Lake,27.0,50.4393,-120.300865,2009-05-23,2009.0,5.0
3276940796,Rebecca Spit Provincial Park,16.0,50.09978,-125.18608,2020-07-20,2020.0,7.0
1206070525,"Departure Bay, Nanaimo",10.0,49.20094,-123.96999,2006-02-19,2006.0,2.0
2084550131,Bear Creek Provincial Park,8.0,49.926243,-119.512024,2017-10-04,2017.0,10.0
4222550551,Vaseux Lake north end,18.0,49.30306,-119.53582,2022-06-15,2022.0,6.0
3220746740,Glassford to Roddie,,52.857605,-122.46857,2020-04-18,2020.0,4.0
3513460554,Burnaby Lake--Piper Spit,16.0,49.242077,-122.93545,2021-03-09,2021.0,3.0
2741045362,Burnaby Lake--Piper Spit,30.0,49.242077,-122.93545,2019-04-07,2019.0,4.0
1725977788,"*Clearwater Valley Rd, DnBL",3.0,51.68589,-120.01772,2016-04-05,2016.0,4.0
1773870680,Kelowna--Rotary Marsh,40.0,49.895695,-119.50002,2016-11-15,2016.0,11.0
2988489128,,,49.284555,-122.771053,2020-04-30T22:18,2020.0,4.0
2171459673,Victoria Harbour,1.0,48.42544,-123.3884,2018-05-22,2018.0,5.0
3216954065,"Swan Lake Nature Sanctuary, Victoria",12.0,48.464558,-123.3738,2020-01-01,2020.0,1.0
2755196386,WorldMark Victoria,11.0,48.42235,-123.381004,2019-05-31,2019.0,5.0
962477754,Kelowna--Robert Lake,2.0,49.93562,-119.408905,2013-08-14,2013.0,8.0
1734842136,Saanich--Panama Flats,12.0,48.476334,-123.4029,2016-05-06,2016.0,5.0
1359997750,Vancouver--Jericho Park,,49.27159,-123.194374,2015-04-15,2015.0,4.0
167186753,englishman river estuary,,49.331036,-124.28876,2008-02-17,2008.0,2.0
3137366406,Reifel Bird Sanctuary,18.0,49.1,-123.185,2020-02-21,2020.0,2.0
958720168,Lillooet--Seton Lake,14.0,50.668766,-121.98866,2013-07-03,2013.0,7.0
2787409749,Dragon Lake rd.,10.0,52.923313,-122.43014,2019-09-26,2019.0,9.0
1162740556,Kelowna--Chichester Marsh,3.0,49.90472,-119.395,2014-04-05,2014.0,4.0
2213301041,Bowker/Queen's Park,20.0,48.42812,-123.305824,2018-09-25,2018.0,9.0
1719675830,Port Moody--Rocky Point Park,6.0,49.280796,-122.849205,2016-03-05,2016.0,3.0
3532543949,Saanich--Panama Flats,6.0,48.476334,-123.4029,2021-09-04,2021.0,9.0
1379204893,Sechelt Marsh,26.0,49.47949,-123.75835,2015-07-25,2015.0,7.0
1369334828,Knutsford--Separation Lake,8.0,50.58569,-120.29215,2015-05-18,2015.0,5.0
1189270271,Island View Beach,62.0,48.5751,-123.36811,2014-09-27,2014.0,9.0
2122928526,Iona Island (General),10.0,49.22133,-123.2111,2018-01-27,2018.0,1.0
2729611073,Squamish Golf Course and Spawning Channels,75.0,49.72928,-123.12374,2019-01-08,2019.0,1.0
4279267024,Manning Park--20 Minute Lake,8.0,49.06332,-120.81964,2022-08-11,2022.0,8.0
3676679423,Wasa Sloughs,14.0,49.751667,-115.72722,2021-05-04,2021.0,5.0
129992483,Vaseux Lake Bird Observatory--old site,30.0,49.30339,-119.53758,1995-09-18,1995.0,9.0
3649780309,Okanagan Landing--Vernon Creek mouth,30.0,50.24469,-119.34437,1999-01-24,1999.0,1.0
3576764223,Squamish River Estuary,60.0,49.70507,-123.17841,2021-09-12,2021.0,9.0
4181341120,Esquimalt Lagoon,5.0,48.4294,-123.45837,2022-05-14,2022.0,5.0
4323812822,Castlegar--Selkirk College Trails,17.0,49.30996,-117.64791,2022-04-12,2022.0,4.0
4398067732,Esquimalt lagoon West side of “Bump”,25.0,48.423122,-123.46623,2022-09-29,2022.0,9.0
1345665109,"Swan Lake Nature Sanctuary, Victoria",7.0,48.464558,-123.3738,2015-01-03,2015.0,1.0
2677302239,"Queen Elizabeth Park, Vancouver CA-BC (49.2390,-123.1125)",8.0,49.238987,-123.11253,2019-05-10,2019.0,5.0
3531411158,Salmon Arm Bay (General),60.0,50.709747,-119.28043,2021-03-29,2021.0,3.0
1391868196,Sooke--Whiffin Spit Park,15.0,48.356464,-123.724594,2015-10-11,2015.0,10.0
968873868,Cranbrook--Irrigation Fields South Pond,75.0,49.57221,-115.65754,2013-10-17,2013.0,10.0
821969645,Vancouver--Queen Elizabeth Park,,49.241943,-123.112206,2012-10-28,2012.0,10.0
3151036582,Lister,2.0,49.036804,-116.469284,2020-02-17,2020.0,2.0
3552440270,North Vancouver--Maplewood Conservation Area,130.0,49.305843,-123.00034,2021-07-05,2021.0,7.0
3233831093,Squamish Estuary Trail,8.0,49.706192,-123.1654,2020-05-03,2020.0,5.0
4264974758,Helmcken Centennial Park,114.0,48.460377,-123.43026,2021-12-08,2021.0,12.0
2191913157,Esquimalt Lagoon,104.0,48.4294,-123.45837,2018-08-20,2018.0,8.0
278246862,Vaseux Lake Campground,4.0,49.29328,-119.527985,2010-04-22,2010.0,4.0
3199341392,Columbia Beach,8.0,49.35418,-124.37037,2020-08-04,2020.0,8.0
1361511162,Victoria--PKOLS (Mount Douglas Park),,48.49255,-123.3453,2015-04-21,2015.0,4.0
2064918339,Victoria--Blenkinsop Lake,8.0,48.483448,-123.3605,2017-05-13,2017.0,5.0
824236536,Abbotsford--Willband Creek Park,12.0,49.07065,-122.28117,2012-07-12,2012.0,7.0
2687982749,Kelowna--Robert Lake,,49.93562,-119.408905,2019-07-23,2019.0,7.0
272487162,Abbotsford--Willband Creek Park,14.0,49.07065,-122.28117,2010-03-18,2010.0,3.0
2158397125,Wilson Creek estuary,8.0,49.438385,-123.71275,2018-05-30,2018.0,5.0
2221242748,Deer Lake Park,144.0,49.237682,-122.96786,2018-11-22,2018.0,11.0
3251768246,Kelowna--Robert Lake,80.0,49.93562,-119.408905,2020-08-31,2020.0,8.0
3153288891,Wasa Lake,2.0,49.779934,-115.73547,2020-04-25,2020.0,4.0
1384425203,Tatlayoko Lake Bird Observatory,1.0,51.653282,-124.40461,2014-08-11,2014.0,8.0
1375673499,Stanley Park,200.0,49.302967,-123.143265,2015-06-25,2015.0,6.0
1792907633,Sooke--Whiffin Spit Park,,48.356464,-123.724594,2004-10-09,2004.0,10.0
2676039972,Parksville--Morningstar Golf Course ponds,9.0,49.335804,-124.36592,2019-05-11,2019.0,5.0
3743232905,,,49.202424,-123.966518,2022-03-16T07:29:10,2022.0,3.0
2153671279,Saanich--Panama Flats,20.0,48.476334,-123.4029,2018-04-30,2018.0,4.0
4303086568,Stanley Park--Lost Lagoon,24.0,49.29563,-123.140305,2022-07-23,2022.0,7.0
2762522094,"Swan Lake Nature Sanctuary, Victoria",45.0,48.464558,-123.3738,2019-06-17,2019.0,6.0
1734952208,Invermere--Windermere Cemetery/Lake Windermere,4.0,50.46635,-115.9945,2016-04-03,2016.0,4.0
3290919587,Haynes Point Provincial Park,115.0,49.01472,-119.45556,2020-11-05,2020.0,11.0
3261387525,"8850 Ash St, Vancouver CA-BC 49.20509, -123.11725",2.0,49.20509,-123.11725,2020-03-10,2020.0,3.0
2145806749,Abbotsford--Fishtrap Creek Park,35.0,49.056416,-122.34872,2018-04-12,2018.0,4.0
3214372517,Nanaimo--Buttertubs Marsh,2.0,49.170925,-123.970764,2020-12-12,2020.0,12.0
3274611658,"Elk Beaver Lake Regional Park, Saanich CA-BC (48.5256,-123.3891)",4.0,48.525574,-123.38907,2020-05-19,2020.0,5.0
3141397215,Pitt Meadows--Thompson Road,4.0,49.27895,-122.62536,2020-03-24,2020.0,3.0
1746962493,Lillooet--Seton Lake,21.0,50.668766,-121.98866,2016-06-24,2016.0,6.0
3519849488,Fernie--Maiden Lake,1.0,49.51766,-115.05635,2021-05-11,2021.0,5.0
3672228341,North Vancouver--Maplewood Conservation Area,11.0,49.305843,-123.00034,2021-03-24,2021.0,3.0
1380543236,Albert Head Lagoon Regional Park,1.0,48.395275,-123.48901,2015-08-05,2015.0,8.0
1354666317,Cheam Lake Wetlands Regional Park,8.0,49.195557,-121.7525,2015-03-17,2015.0,3.0
4309118774,Sannichton (residential),2.0,48.598495,-123.41683,2022-09-15,2022.0,9.0
3167998055,Big Creek Area,6.0,51.72264,-123.042076,2020-05-11,2020.0,5.0
3572877570,Colony Farm,9.0,49.23429,-122.79964,2021-06-07,2021.0,6.0
2783004249,Stanley Park--seawall,58.0,49.3087,-123.13614,2019-08-09,2019.0,8.0
3514874090,Robson--Evin Road,2.0,49.340427,-117.71743,2021-04-24,2021.0,4.0
3650277010,Stanley Park,30.0,49.302967,-123.143265,2021-10-30,2021.0,10.0
2191950842,Stoney Lake,12.0,49.74287,-115.82989,2018-10-06,2018.0,10.0
3270887887,"Elizabeth Lake, Cranbrook",25.0,49.498783,-115.79311,2020-09-23,2020.0,9.0
4252497802,Vancouver--Sutcliffe Park and bay,4.0,49.26835,-123.132706,2022-03-27,2022.0,3.0
3682021436,Parksville Community Park,62.0,49.32567,-124.3088,2021-08-09,2021.0,8.0
2693158716,Salmon Arm Bay (General),20.0,50.709747,-119.28043,2019-07-29,2019.0,7.0
3641926274,Courtenay airpark,67.0,49.68007,-124.979195,2021-10-23,2021.0,10.0
4340177107,"Swan Lake Nature Sanctuary, Victoria",1.0,48.464558,-123.3738,2022-11-25,2022.0,11.0
3243847923,Hornby Island Seawright to Dunlop Point,1.0,49.512783,-124.639336,2020-03-08,2020.0,3.0
823475736,"Hamilton Marsh, Coombs",,49.318634,-124.46566,2012-03-18,2012.0,3.0
3138070401,"Saanich--Tod Creek Flats (""Red Barn Flats"")",40.0,48.53417,-123.44096,2020-03-19,2020.0,3.0
3556002535,Dragon Lake rd.,6.0,52.923313,-122.43014,2021-05-08,2021.0,5.0
3548360881,Coquitlam--Lafarge Lake,2.0,49.287067,-122.78852,2021-03-31,2021.0,3.0
2205680136,Paarens Beach Provincial Park,25.0,54.420227,-124.37811,2018-10-11,2018.0,10.0
4369320092,Martindale Flats,44.0,48.56149,-123.381996,2022-11-10,2022.0,11.0
4188068630,Our yard,5.0,48.473423,-123.34283,2022-01-18,2022.0,1.0
4246795445,Pitt Meadows--Ford Landing,2.0,49.22248,-122.75402,2022-04-24,2022.0,4.0
3672739193,Nanaimo--Buttertubs West Marsh,29.0,49.17138,-123.979126,2021-10-02,2021.0,10.0
2167022219,Fernie--Maiden Lake,6.0,49.51766,-115.05635,2018-05-04,2018.0,5.0
2159958548,Vaseux Lake,1.0,49.299744,-119.53327,2018-04-19,2018.0,4.0
2733735296,Kokanee Creek Provincial Park,10.0,49.60353,-117.12513,2019-03-24,2019.0,3.0
2198541067,Slocan Valley - general location,12.0,49.588234,-117.60315,2018-08-25,2018.0,8.0
2091722626,Salmon Arm Bay (General),700.0,50.709747,-119.28043,2017-09-10,2017.0,9.0
3143489638,"2074 Skimikin Rd (50.7947,-119.4083)",2.0,50.79473,-119.40831,2020-03-23,2020.0,3.0
1163703022,Saanich--Panama Flats,30.0,48.476334,-123.4029,2014-03-16,2014.0,3.0
2760428684,Esquimalt--Saxe Point Park,14.0,48.422195,-123.41878,2019-06-06,2019.0,6.0
3627543392,Nelson--waterfront,120.0,49.498905,-117.291245,2021-04-19,2021.0,4.0
1168011181,Kamloops Airport Dike Trail,1.0,50.69817,-120.450584,2014-05-03,2014.0,5.0
2736793374,Tsawwassen Ferry Terminal Jetty,,49.015713,-123.117065,2019-02-26,2019.0,2.0
2734452496,Nanaimo--Bowen Park,3.0,49.172993,-123.95583,2019-05-03,2019.0,5.0
2105390965,Port Moody--Rocky Point Park,35.0,49.280796,-122.849205,2018-01-14,2018.0,1.0
3231130792,Great Blue Heron Nature Reserve,35.0,49.09632,-122.04541,2020-01-04,2020.0,1.0
2704296070,Courtenay airpark,246.0,49.68007,-124.979195,2019-12-04,2019.0,12.0
1752444255,Central Saanich--ȾIKEL (Maber Flats),9.0,48.572468,-123.43052,2016-07-18,2016.0,7.0
581332121,hawkins lake,,51.83361,-121.0,2011-08-11,2011.0,8.0
3192446052,Rocky Point Bird Observatory (restricted access),12.0,48.3198,-123.54715,2020-10-12,2020.0,10.0
3659055587,Parksville Community Park,15.0,49.32567,-124.3088,2021-06-02,2021.0,6.0
2157456703,"351-355 Atkins Avenue, Victoria, British Columbia, CA (48.447, -123.476)",2.0,48.447376,-123.47625,2018-05-01,2018.0,5.0
2120895568,Reifel Bird Sanctuary,12.0,49.1,-123.185,2018-03-10,2018.0,3.0
1711221125,Burnaby Lake--Rowing Pavilion,112.0,49.245266,-122.95886,2016-01-20,2016.0,1.0
2035219163,Iona Island (General),12.0,49.22133,-123.2111,2017-03-06,2017.0,3.0
4288710486,Pitt Meadows--Grant Narrows,54.0,49.348415,-122.619095,2022-06-14,2022.0,6.0
2669552028,Blackie Spit (Incl. Dunsmuir Farm & Nicomekl estuary),1.0,49.059,-122.879,2019-04-25,2019.0,4.0
4246271939,Saanich--Panama Flats,,48.476334,-123.4029,2022-04-16,2022.0,4.0
824387086,East Sooke Park--Aylard Farm to Beechey Head and Babbington Hill,4.0,48.3235,-123.64949,2012-05-12,2012.0,5.0
271127359,Maplewood 19,6.0,49.305862,-123.00032,2009-02-07,2009.0,2.0
1197869629,Christmas Island and approaches,90.0,50.716133,-119.269806,2005-08-28,2005.0,8.0
2031347600,Kelowna-Vimy Ave beach access,14.0,49.87928,-119.50011,2017-02-07,2017.0,2.0
2713619143,Duncan--Art Mann Park (Quamichan Lk south end),43.0,48.78804,-123.67146,2019-10-13,2019.0,10.0
2136896737,7123 Apex Drive,6.0,50.309,-119.21539,2018-04-21,2018.0,4.0
3269407693,"1180 Comox Street, Vancouver, British Columbia, CA (49.283, -123.131)",6.0,49.282787,-123.130806,2020-10-31,2020.0,10.0
2670245025,"Victoria, British Columbia, CA (48.413, -123.367)",2.0,48.413456,-123.367294,2019-03-17,2019.0,3.0
2036480244,CA-BC-Nanaimo-44-48 Terminal Ave N - 49.1719x-123.9415,30.0,49.171883,-123.94148,2017-01-04,2017.0,1.0
4269899007,"Surrey--69B Neighbourhood Park, Metro Vancouver, CA-BC",13.0,49.121075,-122.68703,2022-01-04,2022.0,1.0
863367891,Khutze Inlet,1.0,53.09977,-128.48494,1936-05-24,1936.0,5.0
3223114188,"Delta - 112th St., north of Hwy 10",75.0,49.1035,-122.91265,2020-02-16,2020.0,2.0
1187715140,Squamish River Estuary,30.0,49.70507,-123.17841,2014-09-14,2014.0,9.0
3680926392,Reifel Bird Sanctuary,,49.1,-123.185,2021-03-02,2021.0,3.0
938236547,Tatlayoko Bird Observatory,,51.6534,-124.4045,2012-05-14,2012.0,5.0
580727326,Duncan--Art Mann Park (Quamichan Lk south end),4.0,48.78804,-123.67146,2010-09-02,2010.0,9.0
3162221072,Home,2.0,48.44562,-123.49244,2020-05-01,2020.0,5.0
1394126370,Tofino airport,50.0,49.079685,-125.77732,2015-10-25,2015.0,10.0
1349362064,"Victoria--Selkirk Waterfront, Gorge Waterway",2.0,48.440186,-123.379395,2015-02-12,2015.0,2.0
2735797734,1100 Rd.,2.0,51.625957,-121.434494,2019-04-13,2019.0,4.0
3618938210,Stanley Park--Lost Lagoon,1.0,49.29563,-123.140305,2021-08-30,2021.0,8.0
2075438175,Taite Creek Rec Site,4.0,49.793377,-118.08846,2017-08-15,2017.0,8.0
1779078025,Brentwood Bay--Gore Park,2.0,48.56652,-123.45588,2016-12-14,2016.0,12.0
3556606261,Victoria--Blenkinsop Lake,250.0,48.483448,-123.3605,2021-09-03,2021.0,9.0
2208600115,Dragon Lake rd.,4.0,52.923313,-122.43014,2018-09-09,2018.0,9.0
1716623113,Fascieux creek,2.0,49.85924,-119.487076,2016-02-10,2016.0,2.0
2167598733,"Elizabeth Lake, Cranbrook",3.0,49.498783,-115.79311,2018-06-28,2018.0,6.0
3237497562,Albert McGowan Park,36.0,50.645332,-120.34816,2020-05-04,2020.0,5.0
2153588328,Fernie--Maiden Lake,14.0,49.51766,-115.05635,2018-04-21,2018.0,4.0
3544797116,"Jericho Beach Park, Vancouver CA-BC 49.27020, -123.19253",14.0,49.270195,-123.192535,2021-03-30,2021.0,3.0
1754372290,Kelowna--Robert Lake,30.0,49.93562,-119.408905,2016-08-07,2016.0,8.0
2752021212,"Nanaimo, British Columbia, CA (49.212, -123.924)",25.0,49.212116,-123.923645,2019-06-07,2019.0,6.0
4368101372,"Swan Lake Nature Sanctuary, Victoria",65.0,48.464558,-123.3738,2022-11-01,2022.0,11.0
3277804494,Nanaimo - Cathers Lake,2.0,49.171436,-123.99151,2020-04-27,2020.0,4.0
3524286303,Iona Island Inner Ponds (NOW CLOSED TO PUBLIC),15.0,49.218887,-123.20556,2021-05-11,2021.0,5.0
3167834649,Kamloops Airport River Trail,102.0,50.698315,-120.44193,2020-07-26,2020.0,7.0
1349367591,Vancouver--Trout Lake (John Hendry Park),4.0,49.25596,-123.062325,2015-02-12,2015.0,2.0
4353061309,Pender Island - Hooson Heights,50.0,48.795364,-123.270134,2022-03-25,2022.0,3.0
4248692922,Vancouver--Memorial South Park,,49.23021,-123.083786,2022-04-26,2022.0,4.0
2750689025,Discovery Island,4.0,48.42343,-123.23739,2019-04-23,2019.0,4.0
2177129143,Reifel Bird Sanctuary,,49.1,-123.185,2008-08-31,2008.0,8.0
2115402923,"Moose Lake (Mount Robson Provincial Park), Fraser-Fort George",55.0,52.95507,-118.88668,2016-08-01,2016.0,8.0
2090243582,Langley--Forslund-Watson Wildlife Area (Restricted Access),16.0,49.052193,-122.58273,2017-08-01,2017.0,8.0
278234288,Stanley Park--Second to Third Beach,,49.295742,-123.15285,1997-11-28,1997.0,11.0
824645216,"Swan Lake Nature Sanctuary, Victoria",4.0,48.464558,-123.3738,2012-04-05,2012.0,4.0
1354515702,Metchosin--Devonian Regional Park,30.0,48.365486,-123.5398,2015-03-16,2015.0,3.0
1768898741,"Kalamalka Lake - north end, Rotary Pier area",32.0,50.230762,-119.26604,2016-10-21,2016.0,10.0
198859822,Arawana,16.0,49.590057,-119.57407,2008-05-31,2008.0,5.0
1197582188,Penticton--Yacht Club/Esplanade,300.0,49.50573,-119.58239,2014-11-29,2014.0,11.0
1155506765,Coquitlam—DeBoville Slough,5.0,49.28285,-122.72233,2014-02-09,2014.0,2.0
2073537199,Bowker/Queen's Park,70.0,48.42812,-123.305824,2017-06-06,2017.0,6.0
1356780300,230 Goward Rd,,48.518906,-123.43045,2015-03-30,2015.0,3.0
4236135147,"Freeman Road Area, (private property)",19.0,52.771282,-122.43442,2022-08-19,2022.0,8.0
579746832,Salmon Arm Bay (General),220.0,50.709747,-119.28043,2005-06-25,2005.0,6.0
3603844586,"7352 Progress Place, Delta, British Columbia, CA (49.137, -123.011)",175.0,49.137096,-123.01079,2021-04-14,2021.0,4.0
2726995858,Sandspit--airport,40.0,53.259003,-131.82152,2015-10-23,2015.0,10.0
2676527215,Port Coquitlam--Blakeburn Lagoons,26.0,49.26583,-122.73676,2019-04-01,2019.0,4.0
2715016501,Yoho NP - Ice River fire road,2.0,51.201164,-116.555824,1994-04-11,1994.0,4.0
129962586,St. Eugene Mission Golf Course,44.0,49.58306,-115.765686,2006-03-02,2006.0,3.0
580744895,Alaksen National Wildlife Area,26.0,49.10199,-123.17275,2010-10-27,2010.0,10.0
2718073237,Haynes Point Provincial Park,3.0,49.01472,-119.45556,2019-10-12,2019.0,10.0
2677383235,Columbia Lake -- Rockbeach,10.0,50.29139,-115.85667,2019-05-21,2019.0,5.0
4245858980,St Eugene Mission,120.0,49.58612,-115.75547,2022-10-26,2022.0,10.0
948647604,Vancouver--Queen Elizabeth Park,2.0,49.241943,-123.112206,2013-04-24,2013.0,4.0
3692079478,Colony Farm,46.0,49.23429,-122.79964,2021-09-02,2021.0,9.0
1165411051,Lardeau,3.0,50.144344,-116.949036,2014-03-05,2014.0,3.0
2122015319,Silver Lake PP,3.0,49.3174,-121.41111,2016-11-17,2016.0,11.0
2157206193,Twinflower Park,2.0,48.511356,-123.52573,2018-04-30,2018.0,4.0
4351032840,Kelowna--Maude-Roxby Sanctuary,4.0,49.870506,-119.49701,2022-11-30,2022.0,11.0
277866943,Salmon Arm Bay (General),350.0,50.709747,-119.28043,2006-08-18,2006.0,8.0
2182184318,Brisco Road,50.0,50.82737,-116.28977,2018-06-21,2018.0,6.0
129988467,Kokanee Creek Provincial Park,,49.60353,-117.12513,1999-10-09,1999.0,10.0
3615808708,"Our Yard, Deep Bay",5.0,49.452274,-124.70565,2021-07-25,2021.0,7.0
2052253297,Reade Lake,70.0,49.626114,-115.84903,2017-05-10,2017.0,5.0
3588075999,Nanaimo--Buttertubs Marsh,35.0,49.170925,-123.970764,2021-01-25,2021.0,1.0
821378436,Vancouver--Jericho Park,,49.27159,-123.194374,1995-04-27,1995.0,4.0
1404870770,Castlegar--Twin Rivers Park,21.0,49.32273,-117.651825,2015-12-31,2015.0,12.0
938381016,Blaeberry--Holmes-Deakin,4.0,51.445328,-117.01609,1998-05-19,1998.0,5.0
2700352994,"Edward Milne Rd, Sooke CA-BC (48.3880,-123.7003)",100.0,48.38795,-123.700294,2019-10-14,2019.0,10.0
1363064300,Bowker/Queen's Park,4.0,48.42812,-123.305824,2015-04-28,2015.0,4.0
2107114769,"Memorial Park, Princeton",11.0,49.462486,-120.49853,2017-10-20,2017.0,10.0
129977169,Kelowna Peachland,30.0,49.822277,-119.65179,2006-05-21,2006.0,5.0
2679825298,Nanaimo--Linley Valley (Cottle Lake) Park,8.0,49.21844,-123.98304,2019-06-02,2019.0,6.0
2068083483,"Cadboro-Gyro Park, Victoria",2.0,48.459747,-123.294586,2017-05-19,2017.0,5.0
1407725670,Rocky Point Bird Observatory (restricted access),2.0,48.3198,-123.54715,2014-10-06,2014.0,10.0
2719836143,Nanaimo - Cathers Lake,65.0,49.171436,-123.99151,2019-11-16,2019.0,11.0
4358154179,Prince George - Gunn Road,7.0,53.90103,-122.69672,2022-03-20,2022.0,3.0
2678046068,Nanaimo--Buttertubs Marsh,1.0,49.170925,-123.970764,2017-12-04,2017.0,12.0
3646329640,"1260 Shuswap Ave, Lumby CA-BC (50.2369,-118.9664)",235.0,50.23688,-118.966415,2021-10-12,2021.0,10.0
2065550312,"Coyote Crossing Pond, km 0.5 Westside Rd.",12.0,50.360683,-119.30088,2017-04-28,2017.0,4.0
2108606910,Martindale Flats,850.0,48.56149,-123.381996,2017-12-03,2017.0,12.0
3612905657,Burnaby Lake--Piper Spit,24.0,49.242077,-122.93545,2021-12-03,2021.0,12.0
3152898593,North Vancouver--Maplewood Conservation Area,2.0,49.305843,-123.00034,2020-04-22,2020.0,4.0
4393288197,Nanaimo--Buttertubs West Marsh,35.0,49.17138,-123.979126,2022-09-27,2022.0,9.0
3205971434,"Stillwater Main, Powell River, British Columbia, CA (49.867, -124.265)",9.0,49.867138,-124.26511,2020-11-08,2020.0,11.0
4207731711,Musqueam Park,2.0,49.22979,-123.191414,2022-03-15,2022.0,3.0
3514775013,Parksville Community Park,,49.32567,-124.3088,2021-03-10,2021.0,3.0
3147002705,Cranbrook - Goshawk trail,2.0,49.483116,-115.7631,2020-04-06,2020.0,4.0
947218110,Columbia Wetlands--McMurdo seasonal lake,1.0,51.147335,-116.780495,2013-04-16,2013.0,4.0
2088574738,"Fenwick Road, Wardner, British Columbia, CA",11.0,49.47319,-115.47122,2017-08-27,2017.0,8.0
2677237585,Nelson Transfer Station and Walkway,6.0,49.490383,-117.30718,2019-05-05,2019.0,5.0
2732761416,Kelowna--Capital News Centre/Thomson Brook Pond,15.0,49.83433,-119.482,2019-05-03,2019.0,5.0
3508353712,Island View Beach,20.0,48.5751,-123.36811,2021-02-05,2021.0,2.0
3680679544,Stump Lake (general),6.0,50.36081,-120.374626,2021-05-22,2021.0,5.0
4348814819,Numa Farms Nursery,34.0,48.421642,-123.53709,2022-02-10,2022.0,2.0
129995505,Trinity Western University,4.0,49.140835,-122.59611,1997-03-14,1997.0,3.0
4351800726,Burnaby Lake--Piper Spit,,49.242077,-122.93545,2022-04-12,2022.0,4.0
2755770114,Goose Lake,15.0,50.58321,-120.39224,2019-06-22,2019.0,6.0
4389615114,Mamit Lake,122.0,50.38028,-120.80653,2022-09-15,2022.0,9.0
1162588726,Saanich--Panama Flats,15.0,48.476334,-123.4029,2014-04-04,2014.0,4.0
2045364854,Duncan--Herd Rd Fields,25.0,48.82147,-123.63103,2017-04-18,2017.0,4.0
3639791634,Sechelt--Porpoise Bay (south end),,49.48664,-123.75888,2021-08-07,2021.0,8.0
984011181,Victoria,16.0,48.42982,-123.3713,2010-02-07,2010.0,2.0
1360647024,Blink Bonnie Bird Observatory,1.0,49.359795,-123.28368,2015-04-18,2015.0,4.0
2678849523,Iona Island beach,2.0,49.219448,-123.21416,2019-04-26,2019.0,4.0
3644397578,"123 Shelly Rd, Parksville CA-BC 49.32078, -124.29349",5.0,49.32078,-124.293495,2021-03-30,2021.0,3.0
3678911726,Becher's Prairie & Lakes North of Hwy 20 (General),2.0,51.991737,-122.45321,2021-07-25,2021.0,7.0
1770019887,Victoria--Blenkinsop Lake,75.0,48.483448,-123.3605,2016-10-30,2016.0,10.0
3225408865,Surrey Lake Park,8.0,49.139214,-122.800285,2020-04-24,2020.0,4.0
3509638169,Kitty Islet,5.0,48.41033,-123.306984,2021-02-10,2021.0,2.0
1756943270,Maple Ridge—Kanaka Creek Regional Park Fraser Riverfront,,49.19716,-122.57991,1993-06-04,1993.0,6.0
3543996716,Metchosin--Pedder Bay,7.0,48.348892,-123.575935,2021-07-21,2021.0,7.0
4355412488,Beacon Hill Park,40.0,48.41042,-123.36465,2022-08-18,2022.0,8.0
3219413517,Witty's Lagoon Regional Park--Tower Point,5.0,48.383133,-123.506195,2020-01-04,2020.0,1.0
824644720,Westbank - Rose Valley Lake,12.0,49.89259,-119.57193,2012-05-26,2012.0,5.0
3147149628,Stanley Park--Lost Lagoon,9.0,49.29563,-123.140305,2020-02-14,2020.0,2.0
581025630,Sechelt--Mission Point,1.0,49.44051,-123.72275,2011-11-18,2011.0,11.0
1396006296,Brisco Rd North,30.0,50.84921,-116.34319,2015-10-25,2015.0,10.0
3228070458,Wardner,39.0,49.41844,-115.42249,2020-02-29,2020.0,2.0
1772672721,French Creek mouth,26.0,49.3485,-124.360085,2016-11-11,2016.0,11.0
4191166799,Serpentine Fen,220.0,49.085617,-122.82616,2022-10-01,2022.0,10.0
947779200,East pine,,55.721394,-121.18905,2013-04-19,2013.0,4.0
3565446240,Princeton--Swan Lake,3.0,49.48111,-120.494446,2021-10-15,2021.0,10.0
2143467412,Coquitlam—DeBoville Slough,50.0,49.28285,-122.72233,2018-03-27,2018.0,3.0
3218702817,Nanaimo River Estuary--Maki Rd access,8.0,49.13053,-123.90319,2020-03-20,2020.0,3.0
3600959105,Okanagan Landing--southeast corner of Vernon Arm,2.0,50.240486,-119.34955,2021-02-05,2021.0,2.0
3168788518,"Burnaby Lake Regional Nature Park, Burnaby CA-BC 49.24305, -122.93532",55.0,49.24305,-122.93532,2020-06-28,2020.0,6.0
167175602,"Naramata Road, Penticton",200.0,49.519665,-119.55574,2007-01-22,2007.0,1.0
968959808,Wasa Lake Provincial Park,10.0,49.79234,-115.73782,2013-10-17,2013.0,10.0
2786751895,Gowlland-Tod Provincial Park,,48.55842,-123.463104,2011-02-27,2011.0,2.0
4279378729,Richmond--Terra Nova,15.0,49.173206,-123.198616,2022-07-18,2022.0,7.0
1188855230,West Kelowna--Mouth of Powers Creek,16.0,49.815502,-119.62352,2014-09-24,2014.0,9.0
2746966822,North Vancouver--Maplewood Conservation Area,2.0,49.305843,-123.00034,2019-04-20,2019.0,4.0
3151102760,Alberni--Victoria Quay,19.0,49.256493,-124.81267,2020-02-05,2020.0,2.0
3549114102,North Vancouver--Maplewood Conservation Area,7.0,49.305843,-123.00034,2021-04-02,2021.0,4.0
3163120159,"Latoria Road gravel pit, Colwood",20.0,48.4057,-123.49302,2020-05-09,2020.0,5.0
3258908262,Nanaimo--Buttertubs Marsh,,49.170925,-123.970764,2010-09-14,2010.0,9.0
3523576099,"Newcastle Island Marine Provincial Park, Nanaimo CA-BC 49.18112, -123.92980",28.0,49.181118,-123.9298,2021-05-22,2021.0,5.0
2768361395,Reifel Bird Sanctuary,60.0,49.1,-123.185,2019-05-20,2019.0,5.0
1172290172,Surrey--Hi-Knoll Park,2.0,49.09255,-122.68112,2014-05-19,2014.0,5.0
2786981077,Esquimalt Lagoon,46.0,48.425503,-123.46258,2019-11-30,2019.0,11.0
823181883,Kelowna--Waterfront Park,11.0,49.89151,-119.49951,2012-09-18,2012.0,9.0
2044923331,Reifel Bird Sanctuary,6.0,49.1,-123.185,2017-03-08,2017.0,3.0
2193227746,Kelowna--Munson Pond,200.0,49.864048,-119.46036,2018-10-10,2018.0,10.0
1724147793,Pitt Meadows--Thompson Road,4.0,49.27895,-122.62536,2016-03-28,2016.0,3.0
1731830438,Cranbrook Irrigation Fields,16.0,49.5713,-115.65463,2016-04-28,2016.0,4.0
2055232441,Beacon Hill Park,10.0,48.41042,-123.36465,2017-04-15,2017.0,4.0
1352171865,1005 dominion ave Port Coquitlam,2.0,49.25851,-122.74318,2015-02-28,2015.0,2.0
980191388,Coquitlam—DeBoville Slough,,49.28285,-122.72233,2006-03-25,2006.0,3.0
3604147791,Vernon--Swan Lake grassland trail,165.0,50.295097,-119.27015,2021-05-22,2021.0,5.0
2194891177,Phillips Road,65.0,49.776222,-124.350174,2018-07-15,2018.0,7.0
2093291580,Reifel Bird Sanctuary,30.0,49.1,-123.185,2017-09-16,2017.0,9.0
4241439507,Semiahmoo Fish and Game Club,212.0,49.024586,-122.70715,2022-02-24,2022.0,2.0
971601390,Upper Clearwater Valley--Edgewood Blue,21.0,51.86895,-120.02185,2010-05-11,2010.0,5.0
1765205772,Beacon Hill Park,45.0,48.41042,-123.36465,2016-10-03,2016.0,10.0
1363207934,Castledale North,3.0,51.03455,-116.56291,2015-04-29,2015.0,4.0
2202831352,Port Coquitlam--Blakeburn Lagoons,,49.26583,-122.73676,2018-09-19,2018.0,9.0
1370648750,RCC Golf Course,9.0,49.12802,-123.12362,2015-05-24,2015.0,5.0
3527809321,Reifel Bird Sanctuary,20.0,49.1,-123.185,2021-05-22,2021.0,5.0
1407730431,Rocky Point Bird Observatory (restricted access),35.0,48.3198,-123.54715,2015-07-22,2015.0,7.0
2220743008,Lillooet--Seton Lake,1.0,50.668766,-121.98866,2018-11-20,2018.0,11.0
277624233,Salmon Arm Bay (General),23.0,50.709747,-119.28043,2010-01-18,2010.0,1.0
954718637,Princeton--sewage channels,7.0,49.460278,-120.48167,2013-05-25,2013.0,5.0
2170803586,"Boundary Bay, Delta",2.0,49.065937,-122.96783,2018-05-21,2018.0,5.0
3606296991,Oak Bay--Bowker Avenue,75.0,48.4305,-123.30454,2021-07-31,2021.0,7.0
823862042,Salmon Arm Bay (General),40.0,50.709747,-119.28043,2012-06-26,2012.0,6.0
3221897917,"1455 Quebec Street, Vancouver, British Columbia, CA (49.274, -123.103)",36.0,49.27414,-123.10276,2020-02-13,2020.0,2.0
4208017081,Stanley Park--Lost Lagoon,4.0,49.29563,-123.140305,2022-10-22,2022.0,10.0
4187902898,"3817 Duke Rd, Metchosin CA-BC 48.38793, -123.50153",12.0,48.38793,-123.50153,2022-12-17,2022.0,12.0
2166001371,Squamish Trails,2.0,49.731277,-123.095894,2018-05-02,2018.0,5.0
4233540174,Abbotsford--Willband Creek Park,,49.07065,-122.28117,2022-10-02,2022.0,10.0
1193874205,Iona Island (General),20.0,49.22133,-123.2111,2010-10-07,2010.0,10.0
129975284,Maplewood 15,11.0,49.30471,-123.004875,1999-02-06,1999.0,2.0
3212526071,Nanaimo--Buttertubs Marsh,120.0,49.170925,-123.970764,2020-12-10,2020.0,12.0
4236306175,Okanagan Landing--Vernon Creek mouth,5.0,50.24469,-119.34437,2022-11-01,2022.0,11.0
3163359845,"Scout Island, Williams Lake",,52.11975,-122.11961,2020-04-14,2020.0,4.0
2792606266,"2272 Master Rd, Nanaimo CA-BC (49.1948,-124.0148)",6.0,49.194843,-124.01485,2019-04-29,2019.0,4.0
2093522011,Sidney Spit (Gulf Islands National Park Reserve),8.0,48.643116,-123.33231,2017-08-21,2017.0,8.0
2732807218,Vancouver--Science World,2.0,49.273567,-123.10389,2019-03-15,2019.0,3.0
2796484994,Parksville Community Park,80.0,49.32567,-124.3088,2019-11-19,2019.0,11.0
2054217407,Nanaimo River Estuary,8.0,49.1346,-123.8947,2017-04-14,2017.0,4.0
1158863456,Kelowna--Munson Pond,1.0,49.864048,-119.46036,2014-03-05,2014.0,3.0
2233436870,Rocky Point Bird Observatory (restricted access),15.0,48.3198,-123.54715,2016-10-11,2016.0,10.0
4348087531,"Boundary Bay, Delta",,49.065937,-122.96783,2002-02-16,2002.0,2.0
1382423661,Reifel Bird Sanctuary,80.0,49.1,-123.185,2015-08-08,2015.0,8.0
4222105296,Rathtrevor Beach Provincial Park,100.0,49.32043,-124.2683,2022-11-05,2022.0,11.0
956584424,Iona Island--North Jetty,15.0,49.23559,-123.24368,2013-06-11,2013.0,6.0
29822004,East Marsh (EM),,49.69147,-123.16659,2002,2002.0,
948250540,Whistler--Valley Trail to Alta Lake,10.0,50.12304,-122.97851,1994-05-22,1994.0,5.0
4230630080,Denman Island,6.0,49.542194,-124.79047,2022-08-26,2022.0,8.0
947982744,Sunshine Valley,6.0,49.27433,-121.23205,2013-04-20,2013.0,4.0
2048415193,Martindale flats,,48.56146,-123.37629,2017-03-21,2017.0,3.0
2111429382,Victoria--Blenkinsop Lake,150.0,48.483448,-123.3605,2017-11-07,2017.0,11.0
1753973458,"Kootenay Lake--north end, Hwy. 31",23.0,50.171513,-116.95749,2016-08-03,2016.0,8.0
276453795,Okanagan Falls (general),2.0,49.34473,-119.57163,2010-03-21,2010.0,3.0
3182619353,Tabor Lake,35.0,53.916878,-122.5367,2020-07-09,2020.0,7.0
1171520528,Creston--Leach Lake,,49.160378,-116.62554,2014-05-14,2014.0,5.0
3254116436,Victoria--Blenkinsop Lake,12.0,48.483448,-123.3605,2020-04-22,2020.0,4.0
2221622389,Sunnygrove Terrace,2.0,48.509697,-123.36299,2018-10-22,2018.0,10.0
3694316161,Martindale Flats,100.0,48.56149,-123.381996,2021-12-22,2021.0,12.0
1383823005,Vancouver--Jericho Park,,49.27159,-123.194374,1988-04-03,1988.0,4.0
3529692459,Royal Roads University,11.0,48.430397,-123.47345,2021-05-07,2021.0,5.0
1748888636,Vaseux Lake north end,50.0,49.30306,-119.53582,2016-06-22,2016.0,6.0
2188473030,Delta--60th Avenue at 64th Street,30.0,49.111816,-123.04561,1992-01-26,1992.0,1.0
3157009325,"Eager Hill Fort Steele Road, East Kootenay C, British Columbia, CA (49.583, -115.669)",,49.58302,-115.66895,2020-04-17,2020.0,4.0
4243701457,Salmon Arm Bay (General),25.0,50.709747,-119.28043,2022-11-02,2022.0,11.0
2099190231,CA-BC-Squamish-Brennan Park Recreation Centre - 49.7248x-123.1441,160.0,49.72476,-123.1441,2017-10-19,2017.0,10.0
3280344364,Courtenay airpark,9.0,49.68007,-124.979195,2020-08-19,2020.0,8.0
4241506855,Gabriola Taylor Bay,2.0,49.193256,-123.866646,2022-04-01,2022.0,4.0
978775621,Lillooet--Seton Lake,2.0,50.668766,-121.98866,2009-03-24,2009.0,3.0
3522890401,"Beaver Road, Victoria CA-BC",5.0,48.50179,-123.413246,2021-04-07,2021.0,4.0
3148902631,"Roberts Creek, Hawthorn Road",6.0,49.426746,-123.64769,2020-03-01,2020.0,3.0
3564257507,Kelowna--Munson Pond,22.0,49.864048,-119.46036,2021-07-25,2021.0,7.0
2164877990,"49888 Highway 99, Ten Mile, Lillooet, British Columbia, CA (50.75, -121.845)",2.0,50.750435,-121.8453,2018-05-18,2018.0,5.0
3278941916,Boundary Bay Regional Park,60.0,49.01818,-123.04611,2020-10-04,2020.0,10.0
1721652951,Salmon Arm Bay (General),35.0,50.709747,-119.28043,2016-03-15,2016.0,3.0
3642327367,Buttertubs Marsh,2.0,49.170467,-123.97113,2021-02-19,2021.0,2.0
3589911879,Victoria--King's Pond,13.0,48.461056,-123.346085,2021-01-01,2021.0,1.0
4367406881,Riverbank,12.0,49.084454,-123.108986,2022-11-25,2022.0,11.0
3589035289,Nanaimo - Cathers Lake,3.0,49.171436,-123.99151,2021-01-02,2021.0,1.0
3166975766,"Mill Lake, Abbotsford",101.0,49.044846,-122.31027,2020-05-10,2020.0,5.0
3571062695,Sechelt--Porpoise Bay (south end),,49.48664,-123.75888,2021-06-23,2021.0,6.0
3521768812,Saanich--Panama Flats,62.0,48.476334,-123.4029,2021-05-22,2021.0,5.0
4389062346,Cedar Road - Cassidy,65.0,49.054134,-123.835144,2022-11-20,2022.0,11.0
3531672383,Esquimalt Lagoon,,48.4294,-123.45837,2021-05-03,2021.0,5.0
3184894402,Seawall,2.0,49.175274,-123.94164,2020-09-18,2020.0,9.0
3540299678,Logan Lake,1.0,50.496666,-120.80635,2021-04-12,2021.0,4.0
2771827655,Parksville--Morningstar Golf Course ponds,31.0,49.335804,-124.36592,2019-05-24,2019.0,5.0
3637298205,Malcolm Island--Rough Bay,27.0,50.648163,-127.035065,2021-11-09,2021.0,11.0
2052519344,Brydon Lagoon--Langley,2.0,49.09851,-122.67781,2017-03-16,2017.0,3.0
2203722224,Kokanee Creek Provincial Park,6.0,49.60353,-117.12513,2018-08-19,2018.0,8.0
3164637163,Victoria--PKOLS (Mount Douglas Park),1.0,48.49255,-123.3453,2020-05-14,2020.0,5.0
4335997349,Minnekhada Regional Park,20.0,49.297222,-122.69972,2022-06-26,2022.0,6.0
1396421233,Saanich--Panama Flats,2.0,48.476334,-123.4029,2015-11-10,2015.0,11.0
2157615535,"Peavine Creek, lakes and marshes",75.0,49.38549,-115.83133,2018-05-26,2018.0,5.0
4080681869,,,48.42224,-123.418099,2023-02-12T17:33,2023.0,2.0
210638048,Squamish - Nexen Lands,18.0,49.685,-123.16389,2009-04-11,2009.0,4.0
141137377,Oliver,,49.17988,-119.5512,2006-02-20,2006.0,2.0
4243225114,Alaksen National Wildlife Area,12.0,49.10199,-123.17275,2022-03-16,2022.0,3.0
277874762,Wakefield Creek,2.0,49.46793,-123.80532,2005-01-16,2005.0,1.0
4252042387,Abbotsford--Willband Creek Park,5.0,49.07065,-122.28117,2022-03-17,2022.0,3.0
3228013013,"8900–8944 Highway 93 95, Canal Flats CA-BC (50.1636,-115.8449)",5.0,50.16365,-115.844894,2020-04-14,2020.0,4.0
2036357317,Kelowna Ryder Drive,4.0,49.896816,-119.44495,2017-03-12,2017.0,3.0
3764201773,,,49.1965,-121.752608,2022-04-23T09:48,2022.0,4.0
3164163809,Burton--creek mouth,82.0,49.982136,-117.892914,2020-06-12,2020.0,6.0
2217420222,Columbia Lake -- Rockbeach,20.0,50.29139,-115.85667,2018-09-29,2018.0,9.0
3547390653,"Dudley Marsh, Coombs",2.0,49.282352,-124.429504,2021-05-19,2021.0,5.0
823744103,Jordan River,13.0,48.421455,-124.05345,2012-09-08,2012.0,9.0
2077040535,Revelstoke--Airport West ponds,60.0,50.961678,-118.18806,2017-08-31,2017.0,8.0
4353217554,Nakusp - general,2.0,50.24248,-117.79992,2022-06-14,2022.0,6.0
3148324711,Vancouver - Guelph Park,1.0,49.264336,-123.096634,2020-04-15,2020.0,4.0
4392741914,Deep Bay,6.0,49.466953,-124.7307,2022-03-19,2022.0,3.0
3665044245,Haynes Point Provincial Park,110.0,49.01472,-119.45556,2021-12-20,2021.0,12.0
3684117752,Saanich--Panama Flats,18.0,48.476334,-123.4029,2021-07-06,2021.0,7.0
4282543539,Castlegar--Waldie Island,2.0,49.33262,-117.656624,2022-05-02,2022.0,5.0
969817369,Penticton--Okanagan Lake,100.0,49.50389,-119.59618,2013-10-22,2013.0,10.0
3170124439,Iona Island (General),6.0,49.22133,-123.2111,2020-05-08,2020.0,5.0
3039184999,,,49.168375,-123.970191,2021-01-29T16:51,2021.0,1.0
3548636427,Kailay Farm 12,1.0,49.049965,-119.48968,2021-04-09,2021.0,4.0
3179233421,Colony Farm,12.0,49.23429,-122.79964,2020-05-27,2020.0,5.0
3227615147,Osoyoos--Road 22 and dykes (general),60.0,49.089268,-119.535194,2020-01-18,2020.0,1.0
823748425,North Vancouver--Maplewood Conservation Area,5.0,49.305843,-123.00034,2012-04-07,2012.0,4.0
3242628764,Panama Flats,25.0,48.47367,-123.40156,2020-04-29,2020.0,4.0
2198734326,Elk/Beaver Lake Regional Park,21.0,48.519787,-123.38969,2018-07-31,2018.0,7.0
1178159879,Royal Roads University,132.0,48.430397,-123.47345,2014-06-25,2014.0,6.0
3233565437,Malcolm Island--Rough Bay,12.0,50.648163,-127.035065,2020-05-09,2020.0,5.0
1178582759,North Vancouver--Maplewood Conservation Area,300.0,49.305843,-123.00034,2014-06-29,2014.0,6.0
4369825522,Maples Wood Mudflats,2.0,49.30475,-123.001785,2022-03-26,2022.0,3.0
3691333097,"Boundary Bay - 96th to 104th Sts., Delta",1.0,49.07305,-122.9485,2021-08-20,2021.0,8.0
2123327871,"Judson Lake, Matsqui",14.0,49.00372,-122.34176,2018-03-17,2018.0,3.0
4330590740,Royal Roads University,93.0,48.430397,-123.47345,2022-03-01,2022.0,3.0
4281437526,Pitt Meadows--Sturgeon Slough,6.0,49.29447,-122.65213,2022-05-21,2022.0,5.0
2122740286,Active Pass,2.0,48.878773,-123.33492,2018-03-15,2018.0,3.0
4319518598,Witty's Lagoon Regional Park,5.0,48.386383,-123.51718,2022-02-11,2022.0,2.0
823628097,Moberly Marsh Spring Survey Route,89.0,51.417904,-117.05987,2012-05-28,2012.0,5.0
4340770040,CA BC Chowsunket St Pond Fraser Lk,8.0,54.03998,-124.84259,2022-06-17,2022.0,6.0
129974301,Maplewood 13,2.0,49.30423,-123.00275,1998-04-04,1998.0,4.0
2173312581,Planta park and surrounding area,14.0,49.216,-123.944824,2018-05-28,2018.0,5.0
1160584762,Iona Island Bird Observatory,2.0,49.220062,-123.20832,2014-03-20,2014.0,3.0
1763869438,Victoria--Highland Pacific Golf Course,16.0,48.468994,-123.45363,2016-09-25,2016.0,9.0
4350916829,Abbotsford--Fishtrap Creek Park,5.0,49.056416,-122.34872,2022-12-10,2022.0,12.0
2156888116,PC01-IIBO,2.0,49.220333,-123.21085,2018-04-30,2018.0,4.0
3241574338,Cranbrook--Irrigation Fields North Pond,4.0,49.57958,-115.668144,2020-04-14,2020.0,4.0
4235303968,Fisher's Field from Backyard,30.0,48.43704,-123.527245,2022-11-18,2022.0,11.0
3694168285,"Richmond – 2000–2998 Nelson Rd, off River Road",12.0,49.194386,-123.012856,2021-11-20,2021.0,11.0
3550317453,Kitimat--Minette Bay,5.0,54.006916,-128.64056,2021-11-05,2021.0,11.0
1206257752,Stanley Park,,49.302967,-123.143265,1985-05-01,1985.0,5.0
3683325478,Esquimalt Lagoon,30.0,48.4294,-123.45837,2021-10-02,2021.0,10.0
167223605,Duncan - Maple Bay,4.0,48.822914,-123.590096,2008-05-23,2008.0,5.0
3513176011,Port Coquitlam--Blakeburn Lagoons,2.0,49.26583,-122.73676,2021-04-25,2021.0,4.0
581204264,Kelowna--UBC Okanagan,210.0,49.93981,-119.39785,2011-03-20,2011.0,3.0
2719962305,Castlegar--Selkirk College Trails,34.0,49.30996,-117.64791,2019-11-15,2019.0,11.0
4284608922,Whistler--Lost Lake,2.0,50.12641,-122.9374,2022-09-03,2022.0,9.0
4394950261,Hawkins Lake,1.0,51.846966,-120.92211,2022-08-19,2022.0,8.0
2137335990,Wasa--Rest Area,6.0,49.82192,-115.759186,2018-03-21,2018.0,3.0
4335869716,Wilson Creek estuary,2.0,49.438385,-123.71275,2022-04-28,2022.0,4.0
2782637898,Deep Cove to Quarry Rock Trail,2.0,49.33239,-122.9399,2019-05-12,2019.0,5.0
1176515966,Canfor 01116 W,2.0,56.538807,-121.55471,2014-06-12,2014.0,6.0
2620029898,,,49.264693,-122.736056,2020-05-04T11:11,2020.0,5.0
2191566030,"Amherst Ave, Sidney",24.0,48.65792,-123.39505,2018-08-03,2018.0,8.0
4231399457,Stanley Park--Lost Lagoon,8.0,49.29563,-123.140305,2022-12-31,2022.0,12.0
4228087572,Victoria--Ogden Point Breakwater,2.0,48.41489,-123.38494,2022-02-28,2022.0,2.0
2311389951,,,49.624211,-116.95966,2019-07-29T16:16:14,2019.0,7.0
4387008616,Stanley Park--Coal Harbour,4.0,49.297134,-123.133026,2022-05-05,2022.0,5.0
2188118841,Powell River--old golf course,2.0,49.860474,-124.54495,2018-09-24,2018.0,9.0
4519234963,,,49.098683,-123.179522,2024-02-04T13:11:15,2024.0,2.0
4313201955,Vancouver--Trout Lake (John Hendry Park),55.0,49.25596,-123.062325,2022-05-31,2022.0,5.0
3208382047,Deep Bay,12.0,49.466953,-124.7307,2020-10-17,2020.0,10.0
1407152761,Sea Island,,49.20841,-123.19214,1998-04-13,1998.0,4.0
964088839,Brydon Lagoon--Langley,9.0,49.09851,-122.67781,2013-09-01,2013.0,9.0
4253324576,"Elizabeth Lake, Cranbrook",150.0,49.498783,-115.79311,2022-11-03,2022.0,11.0
1384019750,Cordova Bay,6.0,48.512875,-123.35608,2015-08-19,2015.0,8.0
1725136089,Guichon Ranch - Beaver Ranch Flats,,50.268055,-120.42778,2016-04-03,2016.0,4.0
3665721127,Squamish Golf Course and Spawning Channels,14.0,49.72928,-123.12374,2021-01-13,2021.0,1.0
3685582404,Westside--The Bluffs (Restricted Access),1.0,49.885254,-119.525696,2021-10-15,2021.0,10.0
4338377042,Richmond--Garden City Lands,8.0,49.173283,-123.12338,2022-05-23,2022.0,5.0
4352913842,Victoria--Blenkinsop Lake,8.0,48.483448,-123.3605,2022-07-23,2022.0,7.0
3678431313,Creston--Speers/Kootenay River Roads,150.0,49.10235,-116.54024,2021-03-14,2021.0,3.0
2081995865,Fanny Bay Conservation Area,28.0,49.500645,-124.8082,2017-07-23,2017.0,7.0
4372946651,North Vancouver--Maplewood Conservation Area,50.0,49.305843,-123.00034,2022-10-13,2022.0,10.0
2189999963,Oak Bay--Cattle Point,34.0,48.43874,-123.29416,2018-08-14,2018.0,8.0
1346302009,"Kelowna, B.C. ( General Area )",40.0,49.881527,-119.45393,2015-01-17,2015.0,1.0
1352517278,Island View Beach,150.0,48.5751,-123.36811,2015-03-01,2015.0,3.0
2140002162,"Numukamis Bay, including Carnation Creek estuary",2.0,48.91339,-125.00477,2018-04-27,2018.0,4.0
1749061196,Sechelt--Mission Point,34.0,49.44051,-123.72275,2016-07-05,2016.0,7.0
3183368332,Meadow Lake road,20.0,51.239834,-121.58097,2020-06-27,2020.0,6.0
1775902981,Parksville--Morningstar Golf Course ponds,2.0,49.335804,-124.36592,2016-11-27,2016.0,11.0
2183084138,Oak Bay--Bowker Avenue,87.0,48.430496,-123.304535,2018-06-05,2018.0,6.0
582781119,Colony Farm,1.0,49.23429,-122.79964,2011-04-29,2011.0,4.0
3587784528,Martindale Flats,70.0,48.56149,-123.381996,2021-01-09,2021.0,1.0
2678524906,Okanagan Falls--Green Lake Road,2.0,49.296696,-119.57472,2019-05-27,2019.0,5.0
4264697438,Garry Point,10.0,49.12584,-123.19255,2022-07-25,2022.0,7.0
4234773036,Martindale Flats--McIntyre Reservoir,1.0,48.56911,-123.379814,2022-08-22,2022.0,8.0
3249364705,West Kelowna--Mouth of Powers Creek,45.0,49.815502,-119.62352,2020-05-05,2020.0,5.0
3211774870,Salmon Arm--Nature Bay Trail (To Christmas Island),8.0,50.70937,-119.27118,2019-08-31,2019.0,8.0
3186700692,"Auto selected 49.35204, -124.63577",9.0,49.352043,-124.63577,2020-09-29,2020.0,9.0
2778658752,Puckle and Lamont Roads,800.0,48.577755,-123.389725,2019-09-09,2019.0,9.0
4301741036,Reifel Bird Sanctuary,800.0,49.1,-123.185,2005-06-30,2005.0,6.0
2154947936,Pitt Wildlife Management Area and Vicinity,15.0,49.318035,-122.638596,2018-04-23,2018.0,4.0
1382336282,Nelson--waterfront,7.0,49.498905,-117.291245,2015-08-16,2015.0,8.0
2126888968,Cedar--Quennell Lake,239.0,49.07698,-123.83264,2018-01-07,2018.0,1.0
3668328605,Victoria--Hastings Flats,16.0,48.47978,-123.42549,2021-04-18,2021.0,4.0
2149544076,Powerline,2.0,48.51089,-123.53045,2018-04-21,2018.0,4.0
29824023,Englishman River Estuary,,49.33461,-124.2935,2000,2000.0,
4348790464,Port Coquitlam--Blakeburn Lagoons,10.0,49.26583,-122.73676,2022-05-16,2022.0,5.0
1758773977,Wilmer National Wildlife Area,15.0,50.549816,-116.0683,2016-08-29,2016.0,8.0
1786399734,Osoyoos - Sewage Lagoons,7.0,49.02028,-119.48778,2002-05-11,2002.0,5.0
1763015241,"Victoria--Selkirk Waterfront, Gorge Waterway",13.0,48.440186,-123.379395,2016-09-23,2016.0,9.0
1193747888,Robson--Evin Road,5.0,49.340427,-117.71743,2014-10-29,2014.0,10.0
3592100928,Okanagan Falls--Green Lake Road,30.0,49.296696,-119.57472,2021-02-03,2021.0,2.0
1178796021,Boundary Lake,,56.342,-120.017,2014-06-30,2014.0,6.0
3583179476,Errington--SM Farms,37.0,49.30179,-124.36994,2021-09-27,2021.0,9.0
4242354375,Vancouver--Devonian Harbour Park,25.0,49.29466,-123.13543,2022-06-20,2022.0,6.0
4360983602,Gabriola Taylor Bay,8.0,49.193256,-123.866646,2022-10-30,2022.0,10.0
3515230224,Kelowna--Robert Lake,150.0,49.93562,-119.408905,2021-03-27,2021.0,3.0
3614926749,Kelowna--mouth of Mission Creek,1.0,49.842785,-119.493,2021-05-12,2021.0,5.0
4215527451,Kelowna--Kinsmen Park,2.0,49.8679,-119.49556,2022-03-05,2022.0,3.0
1184301810,Central Saanich--ȾIKEL (Maber Flats),618.0,48.572468,-123.43052,2014-08-15,2014.0,8.0
1191662666,Roberts Bank,4.0,49.0316,-123.1487,2014-10-12,2014.0,10.0
4273151239,Brydon Lagoon--Langley,1.0,49.09851,-122.67781,2022-09-19,2022.0,9.0
2052808594,"Viaduct Flats, Saanich",,48.498806,-123.41822,2017-03-18,2017.0,3.0
2104761033,Surrey--Joe Brown Park,600.0,49.100887,-122.87771,2017-11-15,2017.0,11.0
2687948017,"Oak Haven Park, Brentwood Bay",,48.563267,-123.44511,2019-05-24,2019.0,5.0
1171206522,Nanaimo River estuary,8.0,49.133038,-123.89424,2014-05-13,2014.0,5.0
3097051640,,,49.029986,-122.657539,2021-04-15T14:00Z,2021.0,4.0
2192248275,Nelson--Lake Side Park,4.0,49.504898,-117.282745,2018-09-14,2018.0,9.0
3637718680,North Vancouver--Maplewood Conservation Area,150.0,49.305843,-123.00034,2021-02-06,2021.0,2.0
4372562831,Salmon Arm Bay (General),100.0,50.709747,-119.28043,2022-07-19,2022.0,7.0
975018592,Neighbourhoods off Okanagan Ave,44.0,50.253353,-119.29848,2013-12-15,2013.0,12.0
2666087966,Cranberry Farm off Willis Way,12.0,49.72291,-124.966286,2019-04-06,2019.0,4.0
1198786384,Rocky Point Bird Observatory (restricted access),2.0,48.3198,-123.54715,1995-05-01,1995.0,5.0
2088469945,Sechelt--Porpoise Bay (south end),11.0,49.48664,-123.75888,2017-08-26,2017.0,8.0
3619325005,Vancouver--Hadden & Vanier Parks,37.0,49.277885,-123.14747,2021-05-08,2021.0,5.0
1368004374,Golden--Sewage Lagoons,1.0,51.289997,-116.97495,2015-04-24,2015.0,4.0
129994843,Ta Ta Creek--Woods' Corner,30.0,49.704445,-115.809166,1976-09-16,1976.0,9.0
2770632271,Abbotsford--Fishtrap Creek Park,25.0,49.056416,-122.34872,2019-07-06,2019.0,7.0
1164804950,Dutch Valley,100.0,54.537968,-128.64278,2014-04-15,2014.0,4.0
2147917949,Brae Island Regional Park,1.0,49.179485,-122.58025,2018-05-09,2018.0,5.0
3590911115,"Telemark Nordic Club, West Kelowna, BC",1.0,49.862366,-119.716774,2021-04-29,2021.0,4.0
167181239,Penticton--Yacht Club/Esplanade,11.0,49.50573,-119.58239,2007-06-15,2007.0,6.0
823352517,Mount Wells Regional Park,4.0,48.44082,-123.555214,2012-03-05,2012.0,3.0
579840345,Vaseux Lake Bird Observatory,2.0,49.30998,-119.54459,2007-09-03,2007.0,9.0
3175972924,Eaglet Lake (general location),38.0,54.098103,-122.30004,2020-05-19,2020.0,5.0
582775892,Sahilton Road,40.0,48.762554,-123.679535,2011-02-05,2011.0,2.0
2224655763,"Beckwith Park, Saanich",5.0,48.480675,-123.36995,2018-12-08,2018.0,12.0
2209433661,Bowker/Queen's Park,8.0,48.42812,-123.305824,2018-09-11,2018.0,9.0
935243470,"Swan Lake Nature Sanctuary, Victoria",,48.464558,-123.3738,2009-04-12,2009.0,4.0
2798039567,Stanley Park--Second Beach,50.0,49.294765,-123.15,1975-01-04,1975.0,1.0
2060038291,"Victoria--Selkirk Waterfront, Gorge Waterway",6.0,48.440186,-123.379395,2017-04-12,2017.0,4.0
2212056645,Burton--creek mouth,150.0,49.982136,-117.892914,2018-10-21,2018.0,10.0
4367145773,Home Balcony new,1.0,49.494442,-123.90893,2022-11-14,2022.0,11.0
2776976190,Bamfield--Ross Islets,2.0,48.869907,-125.161316,2019-05-23,2019.0,5.0
3287844975,Oliver - Lions Park and Riverside Path,,49.19567,-119.55226,2018-08-28,2018.0,8.0
3582111208,Victoria--Fisherman's Wharf,12.0,48.421944,-123.38,2021-10-14,2021.0,10.0
3070399807,,,48.791557,-123.708552,2021-03-27T18:51Z,2021.0,3.0
4368656346,Albert McGowan Park,7.0,50.645332,-120.34816,2022-04-27,2022.0,4.0
4365956763,"Scout Island, Williams Lake",15.0,52.11975,-122.11961,2022-05-03,2022.0,5.0
2669809513,Vaseux Lake--NW marsh,6.0,49.316452,-119.55906,2019-04-19,2019.0,4.0
824074256,Salmon Arm Bay (General),56.0,50.709747,-119.28043,2012-11-27,2012.0,11.0
3667864954,Victoria--McMicking Point,52.0,48.409428,-123.30334,2021-08-04,2021.0,8.0
3681349860,Prince George--Cottonwood Island,2.0,53.92024,-122.72548,2021-04-23,2021.0,4.0
4324656634,Courtenay airpark,86.0,49.68007,-124.979195,2022-08-13,2022.0,8.0
1388261002,"Victoria--Selkirk Waterfront, Gorge Waterway",19.0,48.440186,-123.379395,2015-09-22,2015.0,9.0
2142555403,Reifel Bird Sanctuary,10.0,49.1,-123.185,1986-05-16,1986.0,5.0
2795753248,"Viaduct Flats, Saanich",5.0,48.498806,-123.41822,2005-05-22,2005.0,5.0
3153664153,"Kawkawa Lake, Hope",14.0,49.385277,-121.40361,2020-03-04,2020.0,3.0
942788900,Rocky Point Bird Observatory (restricted access),10.0,48.3198,-123.54715,2012-07-21,2012.0,7.0
3137149766,Creston--Speers/Kootenay River Roads,950.0,49.10235,-116.54024,2020-01-01,2020.0,1.0
2089791214,Port Alberni--Somass Estuary & sewage lagoons,12.0,49.25543,-124.837234,2017-10-28,2017.0,10.0
3144856033,Kelowna Ryder Drive,,49.896816,-119.44495,2020-04-14,2020.0,4.0
2059617531,Iona Island Inner Ponds (NOW CLOSED TO PUBLIC),8.0,49.218887,-123.20556,2017-04-10,2017.0,4.0
3219672342,"Kalamalka Lake - north end, Rotary Pier area",2.0,50.230762,-119.26604,2020-02-16,2020.0,2.0
3290639684,Friends of Columbia Wetland (Richies Point),120.0,50.558487,-116.062836,2020-11-03,2020.0,11.0
581493520,White Rock--Little Campbell River Estuary,220.0,49.01284,-122.777885,2011-11-16,2011.0,11.0
277805759,Colony Farm,22.0,49.23429,-122.79964,2009-08-30,2009.0,8.0
4359402684,Knutsford--Separation Lake,100.0,50.58569,-120.29215,2022-03-26,2022.0,3.0
3271737678,Prince George--Cottonwood Island,2.0,53.92024,-122.72548,2020-05-21,2020.0,5.0
3585174139,Harrison Hot Springs--Beach & town,33.0,49.303905,-121.7848,2021-10-11,2021.0,10.0
579350557,Sooke--Whiffin Spit Park,20.0,48.356464,-123.724594,1999-09-18,1999.0,9.0
2126116881,Alberni Valley--Burde St Ponds,8.0,49.243423,-124.77804,2018-03-26,2018.0,3.0
1360236392,Abbotsford--Willband Creek Park,73.0,49.07065,-122.28117,2015-04-17,2015.0,4.0
3553934453,"Giscome--Eaglet Creek Rd, mom's",2.0,54.06617,-122.38616,2021-03-20,2021.0,3.0
4379877921,Iona Island (General),3.0,49.22133,-123.2111,2022-04-23,2022.0,4.0
2042039078,Laxton Lake,1.0,49.008526,-122.3518,2017-04-08,2017.0,4.0
3225464523,"Personal Yard (private, inactive)",1.0,48.554474,-123.433174,2020-05-02,2020.0,5.0
3525215615,"Elgin Heritage Park, South Surrey",5.0,49.064587,-122.84783,2021-02-22,2021.0,2.0
2152779811,Witty's Lagoon Regional Park,14.0,48.386383,-123.51718,2018-04-29,2018.0,4.0
1750150626,Grand Forks - North Fork Road,6.0,49.099556,-118.46497,2016-06-25,2016.0,6.0
4334793019,Vernon--Swan Lake grassland trail,100.0,50.295097,-119.27015,2022-11-17,2022.0,11.0
943719249,Kelowna--Robert Lake,132.0,49.93562,-119.408905,2013-03-16,2013.0,3.0
2153758952,Saanich--Panama Flats,60.0,48.476334,-123.4029,2018-05-19,2018.0,5.0
2207285483,Martindale Flats--McIntyre Reservoir,18.0,48.56911,-123.379814,2018-09-03,2018.0,9.0
946133860,Kane Valley - Figlinski junction area,2.0,49.913002,-120.88191,2013-04-08,2013.0,4.0
582768715,Fort to Fort Trail,2.0,49.179234,-122.58854,2011-11-25,2011.0,11.0
821442183,Blaeberry--Holmes-Deakin,121.0,51.445328,-117.01609,1998-09-08,1998.0,9.0
2659175159,Kelowna--City Park,35.0,49.883644,-119.502174,2019-02-17,2019.0,2.0
4279348993,Reifel Bird Sanctuary,40.0,49.1,-123.185,2022-04-16,2022.0,4.0
3192461668,North Vancouver--Maplewood Conservation Area,15.0,49.305843,-123.00034,2020-09-01,2020.0,9.0
579356977,Somenos Marsh/Lake,3.0,48.794724,-123.7075,1999-02-20,1999.0,2.0
2748576856,Oyster River Estuary,9.0,49.870853,-125.11574,2019-05-31,2019.0,5.0
167174871,Reifel Bird Sanctuary,,49.1,-123.185,2006-03-05,2006.0,3.0
966727635,Englishman River Estuary (general),6.0,49.330807,-124.2949,2013-09-27,2013.0,9.0
2200428316,Martindale Flats--McIntyre Reservoir,,48.56911,-123.379814,2018-11-01,2018.0,11.0
3207881897,3415 Kelsey Road,12.0,49.533787,-124.81653,2018-08-21,2018.0,8.0
3144459249,"CA-BC-3362-3442 Fisherman Rd (49.4864,-117.4049)",19.0,49.486355,-117.404945,2020-02-04,2020.0,2.0
824631645,Kelowna Ryder Drive,13.0,49.896816,-119.44495,2012-02-19,2012.0,2.0
1164222607,Ladysmith--Kiwi Cove Lodge,1.0,49.026333,-123.84866,2014-04-14,2014.0,4.0
2128561752,Oliver - Lions Park and Riverside Path,,49.19567,-119.55226,2017-08-29,2017.0,8.0
821619174,"Radium Wetlands, Radium Hot Springs,",1.0,50.64413,-116.12016,2006-05-04,2006.0,5.0
1749528087,"Elizabeth Lake, Cranbrook",70.0,49.498783,-115.79311,2016-07-08,2016.0,7.0
167181282,Maplewood 00,,49.306435,-123.00205,2006-07-08,2006.0,7.0
2084049092,"Swan Lake Nature Sanctuary, Victoria",1.0,48.464558,-123.3738,2017-07-31,2017.0,7.0
4200447892,Cheam Lake Wetlands Regional Park,8.0,49.195557,-121.7525,2022-05-11,2022.0,5.0
2180973144,Stanley Park,12.0,49.302967,-123.143265,2018-08-23,2018.0,8.0
2101511954,"Roberts Creek, Hawthorn Road",100.0,49.426746,-123.64769,2017-10-19,2017.0,10.0
3211940405,Stanley Park--seawall,23.0,49.3087,-123.13614,1998-01-01,1998.0,1.0
3143771869,Colony Farm,2.0,49.23429,-122.79964,2020-04-11,2020.0,4.0
3198030213,North Van--Waterfront Park,65.0,49.31182,-123.085884,2020-10-02,2020.0,10.0
1355765904,Tri-Way Mobile Home Park,23.0,48.4524,-123.51141,2015-03-25,2015.0,3.0
2053645191,CA-British Columbia-Wardner-Private Residence- 49.415x-115.457,4.0,49.41492,-115.45702,2017-03-21,2017.0,3.0
4329530498,Nanaimo--Buttertubs Marsh,26.0,49.170925,-123.970764,2022-09-08,2022.0,9.0
4328935149,White Rock Pier,6.0,49.01969,-122.80589,2020-01-07,2020.0,1.0
3141405137,"766 Sea Drive, Brentwood Bay, British Columbia, CA (48.571, -123.468)",4.0,48.57147,-123.46837,2020-04-11,2020.0,4.0
1172227662,Castlegar--Waldie Island,10.0,49.33262,-117.656624,2014-05-19,2014.0,5.0
2076771523,Abbotsford--Willband Creek Park,123.0,49.07065,-122.28117,2017-06-21,2017.0,6.0
1185067757,Great Blue Heron Nature Reserve--East Loop Trail,17.0,49.09526,-122.04165,2014-05-09,2014.0,5.0
1725508484,Stanley Park,12.0,49.302967,-123.143265,2016-04-04,2016.0,4.0
3207097206,Stanley Park,31.0,49.302967,-123.143265,2020-12-20,2020.0,12.0
4264940570,Elk/Beaver Lake Regional Park,34.0,48.519787,-123.38969,2022-07-15,2022.0,7.0
2044326124,Tatlayoko Lake,43.0,51.646507,-124.39371,2017-04-15,2017.0,4.0
2109924729,Esquimalt Lagoon,130.0,48.4294,-123.45837,2017-12-10,2017.0,12.0
2681726596,Reifel Bird Sanctuary,,49.1,-123.185,2019-05-19,2019.0,5.0
3664593616,"Swan Lake Nature Sanctuary, Victoria",18.0,48.464558,-123.3738,2021-11-19,2021.0,11.0
2069159312,Wycliffe-Pighin Rd. N.,2.0,49.64007,-115.869026,2017-05-09,2017.0,5.0
2113298280,"Swan Lake Nature Sanctuary, Victoria",7.0,48.464558,-123.3738,2018-02-13,2018.0,2.0
2673113498,Salt Spring Island--Blackburn Lake,3.0,48.821842,-123.484825,2019-05-04,2019.0,5.0
3275827193,Gorge Vale Golf Course,130.0,48.4404,-123.41266,2020-12-25,2020.0,12.0
1200976297,Victoria--East Esquimalt & Vic West CBC count,3.0,48.430916,-123.3914,2014-12-20,2014.0,12.0
4206320193,"Boundary Bay--104th to 112th Sts., Delta",150.0,49.07966,-122.92495,2022-12-18,2022.0,12.0
2047998306,Harrison Mills--Eagle Point Park (Chehalis Estuary),4.0,49.263245,-121.94272,2017-03-25,2017.0,3.0
2175394190,Stanley Park--Second Beach,45.0,49.294765,-123.15,2018-06-17,2018.0,6.0
3242156614,Science World,5.0,49.273376,-123.10384,2020-02-25,2020.0,2.0
4249423318,Reifel Bird Sanctuary,21.0,49.1,-123.185,2022-10-22,2022.0,10.0
4286839855,Englishman River Estuary--Shelly St side,30.0,49.32629,-124.29538,2022-07-09,2022.0,7.0
2101124887,Campbell River--Tyee Spit,20.0,50.04981,-125.25642,2017-10-25,2017.0,10.0
2193674561,Boundary Bay Regional Park,17.0,49.01818,-123.04611,2018-08-28,2018.0,8.0
3234303395,Penticton--SS Sicamous/Riverside Park,2.0,49.50158,-119.61194,2020-05-04,2020.0,5.0
1157806882,Iona Island Outer Pond,20.0,49.219166,-123.21167,2014-02-19,2014.0,2.0
2769974856,"8441 Golden Bear Pl, Whistler CA-BC (50.1451,-122.9537)",6.0,50.145065,-122.95366,2019-09-04,2019.0,9.0
2786012561,"8th ave. trail, 256-264th street",8.0,49.016033,-122.50112,2019-11-02,2019.0,11.0
147003299,Great Blue Heron Nature Reserve--East Loop Trail,20.0,49.09526,-122.04165,2006-03-19,2006.0,3.0
2760842273,Vancouver--Crab Park (Portside),8.0,49.285046,-123.102356,2019-05-02,2019.0,5.0
4239382931,"North Saanich, Towner Park Road (private property)",26.0,48.669674,-123.4776,2022-10-15,2022.0,10.0
2215789635,"Swan Lake Nature Sanctuary, Victoria",3.0,48.464558,-123.3738,2018-12-27,2018.0,12.0
4240550550,Vancouver--English Bay Beach,8.0,49.28576,-123.1426,2022-03-24,2022.0,3.0
277653963,Cowichan Bay,444.0,48.753075,-123.63868,2010-02-03,2010.0,2.0
3513829956,"Company Rd, Fort Steele CA-BC 49.57359, -115.65285",15.0,49.573593,-115.65285,2021-03-15,2021.0,3.0
4276555213,Portuguese Joe's,6.0,49.67901,-124.965515,2022-01-01,2022.0,1.0
2710353934,Courtenay airpark,348.0,49.68007,-124.979195,2019-07-26,2019.0,7.0
824553829,Fernie (town),4.0,49.513756,-115.05926,2012-04-27,2012.0,4.0
3556999520,Burnaby Lake Regional Park (general),,49.24299,-122.944046,2021-03-23,2021.0,3.0
2063334855,Valemount--Starratt Wildlife Sanctuary (Cranberry Marsh),1.0,52.814243,-119.2623,2017-06-08,2017.0,6.0
2036389829,"Viaduct Flats, Saanich",2.0,48.498806,-123.41822,2017-03-01,2017.0,3.0
1390967496,West Kelowna--Mouth of Powers Creek,68.0,49.815502,-119.62352,2015-10-08,2015.0,10.0
3651804429,Kelowna--Kinsmen Park,20.0,49.8679,-119.49556,2021-08-02,2021.0,8.0
1383737090,Westbank,38.0,49.83591,-119.63982,2015-08-24,2015.0,8.0
3168352069,Abbotsford--Fishtrap Creek Park,2.0,49.056416,-122.34872,2020-06-18,2020.0,6.0
3535669717,UBC Botanical Garden,2.0,49.25436,-123.251236,2021-03-09,2021.0,3.0
3523861296,Stanley Park--Lost Lagoon,8.0,49.29563,-123.140305,2021-05-22,2021.0,5.0
1734932576,"*Clearwater Valley Rd, DnBL",1.0,51.68589,-120.01772,2016-05-02,2016.0,5.0
2756290800,Fort Steele--Stump Lake,4.0,49.599445,-115.59111,2019-05-04,2019.0,5.0
4195789150,Courtenay River Estuary (Comox side),160.0,49.6759,-124.95897,2022-09-19,2022.0,9.0
1172455163,4579 Stalashen Dr,4.0,49.438595,-123.72189,2014-05-19,2014.0,5.0
3161301397,Courtenay airpark,20.0,49.68007,-124.979195,2020-05-30,2020.0,5.0
2121929622,Sea Island (general),75.0,49.20626,-123.18586,1999-12-30,1999.0,12.0
2042576099,Newlands,18.0,54.1106,-122.176575,2017-04-09,2017.0,4.0
2173145323,Colony Farm,19.0,49.23429,-122.79964,2018-06-10,2018.0,6.0
3513598950,"5485 Tatton Station Rd, 100 Mile House CA-BC 51.70637, -121.32118",15.0,51.70637,-121.32118,2021-04-03,2021.0,4.0
3508251976,Vancouver--Jericho Park,,49.27159,-123.194374,2021-03-06,2021.0,3.0
2222003376,Victoria Golf Course (restricted access),40.0,48.41365,-123.29973,2018-12-07,2018.0,12.0
3621565523,"Baldonnel--255 Rd, North End",7.0,56.265926,-120.715904,2021-04-09,2021.0,4.0
167181108,Maplewood 00,35.0,49.306435,-123.00205,2003-12-31,2003.0,12.0
971605564,Lillooet--Seton Lake,2.0,50.668766,-121.98866,2010-05-14,2010.0,5.0
3591742934,Kelowna--Munson Pond,6.0,49.864048,-119.46036,2021-04-20,2021.0,4.0
2690133893,"Southern Gulf Islands, North Saanich CA-BC (48.6979,-123.4074)",8.0,48.69792,-123.40737,2019-07-26,2019.0,7.0
582785912,Westside Rd km 1,500.0,50.356525,-119.31747,2011-12-03,2011.0,12.0
2689668853,North Vancouver--Maplewood Conservation Area,1.0,49.305843,-123.00034,2019-05-04,2019.0,5.0
2687362026,Campbell River--Tyee Spit,65.0,50.04981,-125.25642,2019-07-07,2019.0,7.0
2091264080,Courtenay airpark,1.0,49.68007,-124.979195,2017-09-04,2017.0,9.0
2704154161,Oak Bay--Cattle Point,8.0,48.43874,-123.29416,2019-07-25,2019.0,7.0
3649718032,"Cedar Hill Golf Course, Victoria CA-BC 48.45098, -123.34783",1.0,48.45098,-123.347824,2021-10-18,2021.0,10.0
3294294741,CV - K'omoks First Nation - restricted access,31.0,49.67785,-124.959465,2020-10-12,2020.0,10.0
4360830067,Sluggett Reservoir (Private Property),35.0,48.569233,-123.437935,2022-09-15,2022.0,9.0
2211714943,Abbotsford--Willband Creek Park,110.0,49.07065,-122.28117,2018-10-20,2018.0,10.0
2774261092,Cleswuncut Lake,1.0,53.352127,-123.09934,2019-05-26,2019.0,5.0
3678122837,Cbk--Eff Irrig all,,49.553455,-115.63476,2021-05-22,2021.0,5.0
4264893012,Cowichan Bay--Blackly Dike,23.0,48.7657,-123.63926,2022-05-23,2022.0,5.0
4278781273,Westside - Old Ferry Dock,6.0,49.89,-119.53139,2022-09-28,2022.0,9.0
1778016692,Harrison Hot Springs--Beach & town,75.0,49.303905,-121.7848,2016-11-17,2016.0,11.0
2074791585,Vaseux Lake Bird Observatory,3.0,49.30998,-119.54459,2017-05-21,2017.0,5.0
4272773948,Brydon Lagoon--Langley,15.0,49.09851,-122.67781,2022-04-28,2022.0,4.0
3282717357,Stanley Park,20.0,49.302967,-123.143265,2020-11-01,2020.0,11.0
3537391620,Saanich--Panama Flats,25.0,48.476334,-123.4029,2021-06-18,2021.0,6.0
937667041,Spectrum Schoolyard,285.0,48.46166,-123.40657,2013-01-30,2013.0,1.0
4268524239,Lions Gardens Park,75.0,49.34678,-119.57777,2022-09-11,2022.0,9.0
4528330131,,,51.719902,-121.361481,2022-04-13,2022.0,4.0
2798145145,Saanich--Panama Flats,100.0,48.476334,-123.4029,2019-10-22,2019.0,10.0
1203285766,Blackie Spit (Incl. Dunsmuir Farm & Nicomekl estuary),,49.059,-122.879,2005-11-07,2005.0,11.0
3671423539,Saanich--Panama Flats,50.0,48.476334,-123.4029,2021-09-23,2021.0,9.0
2181328230,Reifel Bird Sanctuary,73.0,49.1,-123.185,2018-07-08,2018.0,7.0
3199532760,Squamish River Estuary,30.0,49.70507,-123.17841,2020-12-27,2020.0,12.0
4355121556,Victoria--Blenkinsop Lake,5.0,48.483448,-123.3605,2022-06-05,2022.0,6.0
4209845855,"Bosworth Street, Coquitlam",2.0,49.254196,-122.889435,2022-04-03,2022.0,4.0
2197006082,Giscome,28.0,54.07349,-122.37003,2018-05-16,2018.0,5.0
3615670529,Robert Lake,40.0,49.93535,-119.40906,2021-03-06,2021.0,3.0
822068905,Can Beaver Lake Stanley Park,,49.30438,-123.13735,2012-08-26,2012.0,8.0
277291256,Herd Road - flooded field (winter),16.0,48.822124,-123.635544,2009-05-05,2009.0,5.0
1778103474,Little Qualicum estuary,100.0,49.3665,-124.49226,2016-12-10,2016.0,12.0
2122551282,Kelowna--Munson Pond,103.0,49.864048,-119.46036,2018-01-20,2018.0,1.0
1366042031,"Wasa--Wasa, BC, CA - My",4.0,49.77847,-115.7348,2015-05-08,2015.0,5.0
4246791398,Powell River--Sliammon Point,17.0,49.894615,-124.60586,2022-12-04,2022.0,12.0
2049102050,Rozicky,40.0,49.39872,-115.38532,2017-03-22,2017.0,3.0
4371273859,Manteo Bay Resort Kelowna BC,20.0,49.847546,-119.488174,2022-10-09,2022.0,10.0
3569838373,Richmond--Terra Nova,9.0,49.173206,-123.198616,2021-08-10,2021.0,8.0
2155221289,Penticton--Yacht Club/Esplanade,15.0,49.50573,-119.58239,2018-05-03,2018.0,5.0
935366020,Moberly Marsh/Gadsden Provincial Park,,51.398308,-117.04751,1997-06-18,1997.0,6.0
2747753452,Tsehum Harbour,5.0,48.667263,-123.4057,2019-03-15,2019.0,3.0
1253306200,,,49.196648,-123.970816,2014-04-01T09:27:17,2014.0,4.0
3581545563,Penticton--SS Sicamous/Riverside Park,8.0,49.50158,-119.61194,2021-11-29,2021.0,11.0
2741019277,"Viaduct Flats, Saanich",,48.498806,-123.41822,2019-04-20,2019.0,4.0
1784661808,"Kawkawa Lake, Hope",6.0,49.385277,-121.40361,2007-04-22,2007.0,4.0
3627351390,Pender Island - Hooson Heights,2.0,48.795364,-123.270134,2021-06-08,2021.0,6.0
1149779774,Reifel Bird Sanctuary,,49.1,-123.185,2014-01-01,2014.0,1.0
3556738135,Saanich--Panama Flats,20.0,48.476334,-123.4029,2021-10-18,2021.0,10.0
3528869545,Hayward Lake,20.0,49.206825,-122.37551,2021-06-07,2021.0,6.0
1752279224,100 Mile Marsh Wildlife Sanctuary,27.0,51.640556,-121.30139,2016-07-22,2016.0,7.0
167174487,Trinity Western University,2.0,49.140835,-122.59611,2005-01-21,2005.0,1.0
2074877473,North Vancouver--Maplewood Conservation Area,4.0,49.305843,-123.00034,2017-05-22,2017.0,5.0
4293372855,Kelowna--Waterfront Park,,49.89151,-119.49951,1998-05-23,1998.0,5.0
3629923405,105 Mile--pond at Back Valley Road,57.0,51.709362,-121.31543,2021-04-09,2021.0,4.0
4323337311,Malcolm Island--Rough Bay,102.0,50.648163,-127.035065,2022-08-04,2022.0,8.0
3598343310,Oak Bay--Bowker Avenue,1.0,48.430496,-123.304535,2021-04-13,2021.0,4.0
2205181703,Lonsdale Quay,2.0,49.31021,-123.08258,2017-02-13,2017.0,2.0
3665600490,Helmcken Centennial Park,,48.460377,-123.43026,2021-11-09,2021.0,11.0
4315059848,Kamloops--McArthur Island Park,29.0,50.696064,-120.377625,2022-05-03,2022.0,5.0
582795783,"Somenos Marsh, North Cowichan, Vancouver Island, BC",245.0,48.797817,-123.70468,2011-02-24,2011.0,2.0
3691581887,Brydon Lagoon--Langley,28.0,49.09851,-122.67781,2021-12-08,2021.0,12.0
277312042,Cedar by the sea,2.0,49.12557,-123.81317,2009-05-02,2009.0,5.0
4201123111,Osoyoos--Hwy. 3 bridge,31.0,49.02909,-119.460526,2022-02-18,2022.0,2.0
4376341864,Englishman River Estuary--Plummer Rd side,14.0,49.328693,-124.286736,2022-03-13,2022.0,3.0
2788656754,Delta—Westham Island,,49.08834,-123.14819,2011-03-13,2011.0,3.0
1162819692,Esquimalt Lagoon,12.0,48.4294,-123.45837,2014-04-05,2014.0,4.0
4313365456,Serpentine Side Channel At 64 Ave,80.0,49.11488,-122.77617,2022-02-06,2022.0,2.0
2733646859,Kokanee Creek Provincial Park,7.0,49.60353,-117.12513,2019-03-01,2019.0,3.0
580206367,Iona Island Bird Observatory,,49.220062,-123.20832,2010-09-08,2010.0,9.0
1722667539,Victoria--Blenkinsop Lake,8.0,48.483448,-123.3605,2016-03-21,2016.0,3.0
2138680651,Oak Bay--Turkey Head/Queen's Park,2.0,48.424488,-123.30104,2018-04-24,2018.0,4.0
1745387389,Wardner--Ha Ha Creek Rd,6.0,49.434647,-115.493454,2016-06-13,2016.0,6.0
2104034512,Blackie Spit (Incl. Dunsmuir Farm & Nicomekl estuary),100.0,49.059,-122.879,2017-10-08,2017.0,10.0
130056293,Taghum,,49.491547,-117.39913,2005-03-07,2005.0,3.0
3569761755,Colony Farm,20.0,49.23429,-122.79964,2021-07-24,2021.0,7.0
3682284232,Penticton--Yacht Club/Esplanade,6.0,49.50573,-119.58239,2021-03-30,2021.0,3.0
581175445,Stanley Park,140.0,49.302967,-123.143265,2011-12-17,2011.0,12.0
3160522735,Stanley Park--Lost Lagoon,43.0,49.29563,-123.140305,2020-05-14,2020.0,5.0
1191968555,Trinity Western University,9.0,49.140835,-122.59611,2014-07-01,2014.0,7.0
210599286,Trinity Western University,15.0,49.140835,-122.59611,2007-05-11,2007.0,5.0
3300470454,Central Saanich--ȾIKEL (Maber Flats),1000.0,48.572468,-123.43052,2020-09-23,2020.0,9.0
3671926130,Victoria--Hastings Flats,111.0,48.47978,-123.42549,2021-01-16,2021.0,1.0
3573369028,Metchosin--Pedder Bay,1.0,48.348892,-123.575935,2021-08-20,2021.0,8.0
3139424381,"595 Valley Rd, Kelowna CA-BC (49.9040,-119.4474)",30.0,49.904026,-119.44741,2020-01-01,2020.0,1.0
4205768326,Owl Ridge Home (D),2.0,50.35421,-122.713425,2022-05-10,2022.0,5.0
4319072242,Salmon Arm--Sandy Point Road woods,12.0,50.733643,-119.31332,1983-08-04,1983.0,8.0
272035725,Kelowna--Bulman Road,20.0,49.937244,-119.38611,2009-04-21,2009.0,4.0
3590217032,Kilby Provincial Park,11.0,49.2375,-121.9625,2021-03-14,2021.0,3.0
4251461842,Vancouver--Trout Lake (John Hendry Park),5.0,49.25596,-123.062325,2022-04-24,2022.0,4.0
3610213021,Little Qualicum estuary,28.0,49.3665,-124.49226,2021-01-14,2021.0,1.0
822977695,horseshoe lake,2.0,49.89527,-124.27276,2012-10-06,2012.0,10.0
4234628853,Reifel Bird Sanctuary,,49.1,-123.185,2008-12-16,2008.0,12.0
3669668416,Salmon Arm Bay (General),80.0,50.709747,-119.28043,2021-07-16,2021.0,7.0
4275373171,"Rennie Rd, Pitt Meadows CA-BC 49.33858, -122.63100",3.0,49.338577,-122.631004,2022-06-15,2022.0,6.0
4323263397,Eaglet Lake—field by brown gate with stars,20.0,54.10473,-122.30883,2022-09-30,2022.0,9.0
582801912,Sea Island--Shannon Rd & Dyke,6.0,49.21051,-123.19211,2011-04-13,2011.0,4.0
3860066621,,,49.10111,-123.18509,2022-06-05T14:39,2022.0,6.0
1169149876,Victoria--Hastings Flats,18.0,48.47978,-123.42549,2014-05-06,2014.0,5.0
272082336,Osoyoos--Road 22 and dykes (general),18.0,49.089268,-119.535194,2009-05-24,2009.0,5.0
4327693148,Reifel Bird Sanctuary,20.0,49.1,-123.185,2022-02-26,2022.0,2.0
2081564878,Burton--creek mouth,250.0,49.982136,-117.892914,2017-09-16,2017.0,9.0
822992743,Kelowna--Sutherland Bay,15.0,49.903564,-119.49358,2012-10-02,2012.0,10.0
4329353897,Telegraph Cove,31.0,50.548016,-126.82909,2022-09-22,2022.0,9.0
4240458438,Okanagan Lake,,49.963467,-119.46184,2022-08-13,2022.0,8.0
2071726697,"Bowker Creek, Victoria",2.0,48.43593,-123.326004,2017-05-29,2017.0,5.0
1393170823,Sooke--Whiffin Spit Park,5.0,48.356464,-123.724594,2015-10-19,2015.0,10.0
2202575350,Stanley Park--Coal Harbour,86.0,49.297134,-123.133026,2018-11-09,2018.0,11.0
963441106,Kelowna--Bredin Pond,4.0,49.95884,-119.42203,2013-08-24,2013.0,8.0
978603082,Blaeberry--Holmes-Deakin,,51.445328,-117.01609,2006-09-07,2006.0,9.0
2184065133,North Vancouver--Maplewood Conservation Area,120.0,49.305843,-123.00034,2018-07-18,2018.0,7.0
4278297786,Telkwa--Round Lake,64.0,54.662025,-126.9328,2022-11-11,2022.0,11.0
3561151438,Sargeant Bay Provincial Park,900.0,49.476017,-123.86304,2021-04-16,2021.0,4.0
1729137709,Cranbrook--Jimsmith Lake and Area,2.0,49.48452,-115.850655,2016-04-19,2016.0,4.0
2666857449,Cedar--Quennell Lake,200.0,49.07698,-123.83264,2019-01-18,2019.0,1.0
3140192275,944 Dunsmuir Road,2.0,48.427868,-123.40196,2020-02-24,2020.0,2.0
4375656661,Victoria--Cuthbert Holmes Park (Colquitz Creek),120.0,48.45677,-123.40099,2022-10-11,2022.0,10.0
4338108860,Giscome—field by corner,6.0,54.066654,-122.36797,2022-05-11,2022.0,5.0
2208016340,Sumas Prairie,75.0,49.03922,-122.16162,2018-10-08,2018.0,10.0
4214904237,Kelowna--Sunset Drive Park (Lower Brandt's Creek),2.0,49.8967,-119.49566,2022-04-01,2022.0,4.0
3174733728,Bartholomew Kake,6.0,49.68546,-115.783554,2020-05-11,2020.0,5.0
978106423,Blaeberry--Holmes-Deakin,,51.445328,-117.01609,2001-05-09,2001.0,5.0
1197266601,East Sooke Regional Park--Beechey Head,14.0,48.31402,-123.653946,2001-10-01,2001.0,10.0
2721432899,North Van--Waterfront Park,23.0,49.31182,-123.085884,2019-11-13,2019.0,11.0
4363394099,Harrison Mills--Sandpiper Golf Course eagle viewing platform,20.0,49.2574,-121.94084,2022-11-30,2022.0,11.0
3606360781,Dinosaur Lake Campground,12.0,55.979538,-122.006996,2021-03-31,2021.0,3.0
3540358724,O'keefe Ranch,6.0,50.36364,-119.282,2021-03-30,2021.0,3.0
4198421123,Witty's Lagoon Regional Park,4.0,48.386383,-123.51718,2022-03-14,2022.0,3.0
1179829392,"Viaduct Flats, Saanich",,48.498806,-123.41822,2014-07-11,2014.0,7.0
3644956638,My Yard - Meadow Park Lane,5.0,48.468254,-123.44278,2021-10-27,2021.0,10.0
972337149,Moberly Marsh/Gadsden Provincial Park,,51.398308,-117.04751,1995-04-25,1995.0,4.0
2747904734,230 Goward Rd,6.0,48.518906,-123.43045,2019-03-06,2019.0,3.0
3171146591,Castlegar--Selkirk College Trails,20.0,49.30996,-117.64791,2020-05-10,2020.0,5.0
2667123914,Kelowna--Rotary Beach,2.0,49.849045,-119.487,2019-04-22,2019.0,4.0
3176231246,Cordova Bay,20.0,48.512875,-123.35608,2020-08-19,2020.0,8.0
2218060481,Rocky Point Bird Observatory (restricted access),26.0,48.3198,-123.54715,2018-10-14,2018.0,10.0
3507230553,Alberni Valley-Somass Estuary Gate/Old Airport Road,24.0,49.263256,-124.840515,2021-01-01,2021.0,1.0
3189545508,Tsawwassen--Beach Grove Park,50.0,49.034706,-123.0563,2020-10-26,2020.0,10.0
3160689913,George C. Reifel B.C.,500.0,49.098335,-123.17915,1980-04-30,1980.0,4.0
2090964106,Denman Island,,49.508106,-124.73215,2017-08-04,2017.0,8.0
3563531277,Prest Rd,14.0,49.16969,-121.91605,2021-11-12,2021.0,11.0
2790281132,Englishman River Estuary--Plummer Rd side,31.0,49.328693,-124.286736,2019-08-12,2019.0,8.0
1765976652,Tsawwassen Springs Golf Course,30.0,49.029583,-123.0852,1990-11-30,1990.0,11.0
4341109188,Port Edward--Picnic area,4.0,54.21912,-130.2906,2022-04-12,2022.0,4.0
2109688490,Penticton--Okanagan Lake,3.0,49.50389,-119.59618,2017-11-01,2017.0,11.0
3200925577,Bazan Bay Rd beach,2.0,48.624565,-123.40724,2020-11-01,2020.0,11.0
1357303748,Oxbows,15.0,49.461514,-119.59687,2015-04-02,2015.0,4.0
2692433147,Kilpoola Lake Road,10.0,49.064117,-119.56056,2006-06-21,2006.0,6.0
2772518689,Reifel Bird Sanctuary,90.0,49.1,-123.185,2019-05-11,2019.0,5.0
3232600805,Creston--Duck Lake,30.0,49.222702,-116.62863,2020-05-15,2020.0,5.0
3555075228,"Mill Lake, Abbotsford",6.0,49.044846,-122.31027,2021-03-29,2021.0,3.0
3665175579,Victoria--Craigflower-Kosapsom Park,1.0,48.4528,-123.42046,2021-11-09,2021.0,11.0
582790910,Sunshine Coast-Heritage Road,,49.499126,-123.790855,2011-03-14,2011.0,3.0
2153278283,Rosswood House,2.0,54.83834,-128.78502,2018-04-29,2018.0,4.0
966827309,Blaeberry--Holmes-Deakin,,51.445328,-117.01609,2013-09-27,2013.0,9.0
210599018,Trinity Western University,6.0,49.140835,-122.59611,2006-04-03,2006.0,4.0
3551766024,Pitt Meadows--Catbird Slough,2.0,49.33425,-122.6423,2021-05-21,2021.0,5.0
3279278949,Courtenay Estuary (General),300.0,49.679592,-124.97361,2020-09-12,2020.0,9.0
3195863437,"Baldonnel--255 Rd, Beatton River Valley",186.0,56.27392,-120.7058,2020-09-12,2020.0,9.0
582797732,Serpentine Fen,25.0,49.085617,-122.82616,2011-10-09,2011.0,10.0
4219741643,Great Blue Heron Nature Reserve,100.0,49.09632,-122.04541,2022-03-25,2022.0,3.0
2047070969,Hwy 5 (Tk'Emlups) to Lafarge,120.0,50.672794,-120.16955,2017-03-15,2017.0,3.0
4293207848,Harrison Hot Springs--Beach & town,18.0,49.303905,-121.7848,2022-01-09,2022.0,1.0
2038429761,Whitehead Park - north end Prospect Lake,12.0,48.52102,-123.43999,2017-02-05,2017.0,2.0
3200972753,Boundary Bay B.C Dyke walk from tower to 12th,16.0,49.021477,-123.04565,2020-12-17,2020.0,12.0
3152986801,"Trevlac Pond / Calvert Park, Saanich",4.0,48.49561,-123.44383,2020-05-18,2020.0,5.0
2051267034,Elkview Yard,2.0,49.49522,-115.07089,2017-04-05,2017.0,4.0
2040572792,Martindale Flats,400.0,48.56149,-123.381996,2017-01-22,2017.0,1.0
3638035346,Nanaimo--Buttertubs Marsh,1.0,49.170925,-123.970764,2021-06-02,2021.0,6.0
1345437063,Pitt Meadows--Grant Narrows,32.0,49.348415,-122.619095,2015-01-10,2015.0,1.0
4214174964,"Metchosin, British Columbia, CA (48.382, -123.529)",20.0,48.38202,-123.529,2022-12-27,2022.0,12.0
3280746756,Sunnygrove Terrace,15.0,48.509697,-123.36299,2020-11-15,2020.0,11.0
3638395294,Kokanee Creek Provincial Park,4.0,49.60353,-117.12513,2021-04-18,2021.0,4.0
3610681758,Coquitlam—DeBoville Slough,11.0,49.28285,-122.72233,2021-04-08,2021.0,4.0
3159810492,Trail--Ravens rock/bluffs trail,1.0,49.10668,-117.70088,2020-06-11,2020.0,6.0
3602086271,Furry Creek mouth (Oliver's Landing),12.0,49.583195,-123.22673,2021-02-27,2021.0,2.0
3197336452,Revelstoke--Airport Marsh and Machete Island,8.0,50.96902,-118.192375,2020-09-22,2020.0,9.0
2041775692,Burnaby Lake--Piper Spit,20.0,49.242077,-122.93545,2017-04-06,2017.0,4.0
4239418399,Pitt Meadows--Harris Rd Dyke,4.0,49.280544,-122.68933,2022-02-14,2022.0,2.0
580738958,Harrison Mills--Eagle Point Park (Chehalis Estuary),27.0,49.263245,-121.94272,2010-08-25,2010.0,8.0
3277459973,Separation Lake (S end),40.0,50.582134,-120.2963,2000-04-05,2000.0,4.0
1168780350,Salmon Arm Bay (General),15.0,50.709747,-119.28043,2014-05-05,2014.0,5.0
3209638277,Cranberry Farm,33.0,50.48726,-122.95971,2020-10-19,2020.0,10.0
581010193,Serpentine Fen,2.0,49.085617,-122.82616,2011-10-11,2011.0,10.0
2690464253,Samuel Island,54.0,48.81952,-123.209175,2019-07-06,2019.0,7.0
1790345435,Reifel Bird Sanctuary,,49.1,-123.185,1995-04-30,1995.0,4.0
3384904181,,,49.208341,-123.97535,2021-10-03T08:29:48,2021.0,10.0
3574316232,"Peavine Creek, lakes and marshes",25.0,49.38549,-115.83133,2021-07-14,2021.0,7.0
1349983324,Trout Creek Lakeshore Trail,3.0,49.582935,-119.637405,2015-02-14,2015.0,2.0
4339041804,Osoyoos--Road 22 and dykes (general),50.0,49.089268,-119.535194,2022-12-31,2022.0,12.0
3613777646,Salmon Arm Bay (General),69.0,50.709747,-119.28043,2021-01-20,2021.0,1.0
2105146063,Englishman River Estuary--Plummer Rd side,33.0,49.328693,-124.286736,2017-10-12,2017.0,10.0
3280594751,Squamish River Estuary -- East (of central channel),2.0,49.690567,-123.16406,2020-08-26,2020.0,8.0
2139824396,Stanley Park--Beaver Lake,2.0,49.30419,-123.13901,2018-03-28,2018.0,3.0
4215003213,Mahoney Lake,6.0,49.287785,-119.58058,2022-04-18,2022.0,4.0
2092442733,Richmond--Terra Nova,12.0,49.173206,-123.198616,2017-09-16,2017.0,9.0
2704548256,"1901 Comox Rd, Courtenay CA-BC (49.6853,-124.9862)",15.0,49.685337,-124.98619,2019-11-09,2019.0,11.0
1748135916,Sechelt--Mission Point,38.0,49.44051,-123.72275,2016-06-30,2016.0,6.0
4381057289,Kelowna--Munson Pond,80.0,49.864048,-119.46036,2022-12-13,2022.0,12.0
3135472445,Coquitlam—DeBoville Slough,44.0,49.28285,-122.72233,2020-02-09,2020.0,2.0
2099051562,Tatlayoko Lake Bird Observatory,5.0,51.653282,-124.40461,2017-09-14,2017.0,9.0
3546859886,Albert Head Lagoon Regional Park,7.0,48.395275,-123.48901,2021-07-31,2021.0,7.0
1156345256,Burnaby Lake--Piper Spit,9.0,49.242077,-122.93545,2014-02-15,2014.0,2.0
1753920629,Iona Island (General),15.0,49.22133,-123.2111,2016-08-04,2016.0,8.0
4286809008,Nicomen Island - Athey Road,50.0,49.186043,-122.03972,2022-01-02,2022.0,1.0
3657887283,Royal Roads University,50.0,48.430397,-123.47345,2021-08-24,2021.0,8.0
3521955260,Kamloops--McArthur Island Park,36.0,50.696064,-120.377625,2021-04-19,2021.0,4.0
4226278339,"Swan Lake Nature Sanctuary, Victoria",9.0,48.464558,-123.3738,2022-02-23,2022.0,2.0
2690296070,West Vancouver--Lighthouse Park,9.0,49.336113,-123.26361,2019-02-03,2019.0,2.0
4265313828,New Remo,32.0,54.50115,-128.71239,2022-10-16,2022.0,10.0
3647975493,"Juan de Fuca, British Columbia",2.0,48.340282,-123.48495,2021-09-12,2021.0,9.0
3254462846,Kelowna--Robert Lake,1.0,49.93562,-119.408905,2020-04-27,2020.0,4.0
3690105675,Oliver Woods Community Centre Pond,4.0,49.223827,-124.02666,2021-05-08,2021.0,5.0
3607929061,230 Goward Rd,6.0,48.518906,-123.43045,2021-04-21,2021.0,4.0
2109814730,"Boundary Bay - 64th-72nd Sts., Delta",6.0,49.050194,-123.037315,2017-11-01,2017.0,11.0
4352904013,Iona Island (General),8.0,49.22133,-123.2111,2022-09-15,2022.0,9.0
2157562514,Alberni Valley--Burde St Ponds,11.0,49.243423,-124.77804,2018-05-01,2018.0,5.0
2212880225,Cranbrook--Spray Irrigation-Silo Pond,17.0,49.539074,-115.62308,2018-11-14,2018.0,11.0
821756948,"Everett Crowley Park, Vancouver",,49.20972,-123.04151,2009-08-16,2009.0,8.0
2055417901,Creston--Channel Road,16.0,49.197857,-116.588974,2017-04-15,2017.0,4.0
2153641455,Vancouver--Jericho Park,2.0,49.27159,-123.194374,2018-04-21,2018.0,4.0
3207052753,Vancouver--Airport (YVR),12.0,49.19626,-123.20307,2020-12-13,2020.0,12.0
2223749539,Sardis Park,107.0,49.127857,-121.95331,2018-12-03,2018.0,12.0
3608905602,home to point and back,11.0,49.470024,-124.23787,2021-05-18,2021.0,5.0
2169696171,"White Lake, Okanagan Falls",9.0,49.309902,-119.639915,2018-05-19,2018.0,5.0
3201201346,Parksville Community Park,190.0,49.32567,-124.3088,2020-12-06,2020.0,12.0
2165473935,North Barriere Lake,,51.342194,-119.823586,2018-05-25,2018.0,5.0
3213833953,Nanaimo--Buttertubs Marsh,117.0,49.170925,-123.970764,2020-12-27,2020.0,12.0
2193665677,Uplands Park,2.0,48.441635,-123.29881,2018-10-12,2018.0,10.0
2157495047,"Matsqui Trail Park, Mission Bridge section",5.0,49.121944,-122.301094,2018-04-14,2018.0,4.0
2676173102,Great Blue Heron Nature Reserve,8.0,49.09632,-122.04541,2019-04-01,2019.0,4.0
210636035,Squamish--Amblepath Slough,3.0,49.73237,-123.1471,2009-04-07,2009.0,4.0
940716011,Salmon Arm Bay (General),,50.709747,-119.28043,1975-10-01,1975.0,10.0
1740783399,Elk/Beaver Lake Regional Park,6.0,48.519787,-123.38969,2016-05-20,2016.0,5.0
3510546080,Sechelt--The Shores,100.0,49.499405,-123.790085,2021-01-07,2021.0,1.0
2131269598,Martindale Flats--McIntyre Reservoir,60.0,48.56911,-123.379814,2018-04-09,2018.0,4.0
1741675122,Creston--Leach Lake,50.0,49.160378,-116.62554,2016-05-26,2016.0,5.0
3654808900,Iona Island (General),20.0,49.22133,-123.2111,2021-07-17,2021.0,7.0
2712411577,Victoria--Blenkinsop Lake,8.0,48.483448,-123.3605,2019-07-22,2019.0,7.0
3683143684,Salmon Arm Bay (General),200.0,50.709747,-119.28043,2021-06-18,2021.0,6.0
2143406890,Revelstoke--Cartier Bay & Cartier Point,72.0,50.923058,-118.148,2018-03-27,2018.0,3.0
1197515932,Celtic and Balaclava,45.0,49.21734,-123.1756,2014-11-29,2014.0,11.0
1165047500,Blaeberry--Holmes-Deakin,2.0,51.445328,-117.01609,2014-04-18,2014.0,4.0
3563814449,Reade Lake,45.0,49.626114,-115.84903,2021-04-21,2021.0,4.0
3658016257,"British Columbia 6, Central Kootenay K, British Columbia, CA (49.984, -117.888)",21.0,49.984238,-117.88776,2021-07-07,2021.0,7.0
129998834,Christie Memorial Provincial Park,2.0,49.347095,-119.57416,1995-05-02,1995.0,5.0
1770474898,Cedar--Quennell Lake,20.0,49.07698,-123.83264,2016-10-31,2016.0,10.0
944104071,Wasa Sloughs,45.0,49.751667,-115.72722,2013-03-23,2013.0,3.0
4297070573,Kelowna--Fascieux Creek Park,,49.85925,-119.48708,2022-02-10,2022.0,2.0
2231101083,Osoyoos--Road 22 and dykes (general),,49.089268,-119.535194,1993-05-23,1993.0,5.0
3536279970,Vancouver--Jericho Park,,49.27159,-123.194374,2021-07-18,2021.0,7.0
2042557958,Bummer Flats,40.0,49.671944,-115.681114,2017-04-09,2017.0,4.0
3947839558,,,48.444907,-123.352419,2022-10-21T13:07,2022.0,10.0
582778026,Belcarra Regional Park,15.0,49.312866,-122.92595,2011-04-24,2011.0,4.0
4384145730,Martindale Flats,350.0,48.56149,-123.381996,2022-11-05,2022.0,11.0
3679943701,Penticton--Yacht Club/Esplanade,5.0,49.50573,-119.58239,2021-05-29,2021.0,5.0
1386522925,North Vancouver--Maplewood Conservation Area,70.0,49.305843,-123.00034,2015-09-10,2015.0,9.0
1192063926,Kelowna--Alki Lake landfill,8.0,49.955833,-119.41722,2014-10-16,2014.0,10.0
2190047410,Colony Farm,2.0,49.23429,-122.79964,2018-09-29,2018.0,9.0
3566032151,Pitt Meadows--Sturgeon Slough,30.0,49.29447,-122.65213,2021-06-09,2021.0,6.0
3593976330,Vancouver--Hadden & Vanier Parks,4.0,49.277885,-123.14747,2021-04-01,2021.0,4.0
1746584110,Stanley Park--Lost Lagoon,350.0,49.29563,-123.140305,2016-06-22,2016.0,6.0
1387331835,Victoria--Dallas Road Waterfront Trail,20.0,48.40929,-123.375435,2015-08-28,2015.0,8.0
581010060,Iona Island Inner Ponds (NOW CLOSED TO PUBLIC),9.0,49.218887,-123.20556,2011-02-13,2011.0,2.0
3618206190,Tatchell road,2.0,52.97268,-122.41419,2021-03-19,2021.0,3.0
823440794,"BC, Hope",,49.438663,-121.278076,2012-04-13,2012.0,4.0
2149280606,St Eugene Mission,8.0,49.58612,-115.75547,2018-04-12,2018.0,4.0
3588392319,"Flats, Masset, British Columbia, CA (54.018, -132.139)",120.0,54.017548,-132.13893,2021-02-07,2021.0,2.0
2210015894,Nanaimo--Neck Point Park,14.0,49.235535,-123.96475,2018-10-14,2018.0,10.0
3188579339,Iona Island (General),,49.22133,-123.2111,2000-10-14,2000.0,10.0
2748666810,Nanaimo River Estuary,10.0,49.1346,-123.8947,2019-05-15,2019.0,5.0
2146970480,Derby Reach Regional Park,9.0,49.19823,-122.594505,2018-03-16,2018.0,3.0
3245097368,Cowichan Bay--Lochmanetz Rd (Dinsdale Farm) Dike,34.0,48.750465,-123.643974,2020-04-13,2020.0,4.0
2233914802,French Creek mouth,20.0,49.3485,-124.360085,2018-11-10,2018.0,11.0
1177077964,Butchart Gardens,,48.56478,-123.4694,2014-06-17,2014.0,6.0
4244104324,Victoria--Dallas Road Waterfront Trail,11.0,48.40929,-123.375435,2022-12-17,2022.0,12.0
3246769013,Wolfs Den,2.0,53.806126,-123.04859,2020-04-09,2020.0,4.0
1151398111,Cowichan Bay,150.0,48.753075,-123.63868,2014-01-24,2014.0,1.0
2029396035,Stanley Park,,49.302967,-123.143265,2010-08-08,2010.0,8.0
1171456644,Golden--Reflection Lake,8.0,51.283596,-116.94597,2014-05-14,2014.0,5.0
3243880317,Sannichton (residential),35.0,48.598495,-123.41683,2020-04-17,2020.0,4.0
3239247176,Becher's Prairie & Lakes North of Hwy 20 (General),2.0,51.991737,-122.45321,2020-05-05,2020.0,5.0
2210218286,Victoria,,48.4251,-123.30692,2018-08-27,2018.0,8.0
2211366970,NCC Luxor Linkage,9.0,50.74677,-116.197716,2018-09-29,2018.0,9.0
3625905046,Albert McGowan Park,12.0,50.645332,-120.34816,2021-08-02,2021.0,8.0
3560047084,Stanley Park--Lost Lagoon,12.0,49.29563,-123.140305,2021-04-02,2021.0,4.0
3661946373,Reifel Bird Sanctuary,610.0,49.1,-123.185,2020-06-20,2020.0,6.0
2758551272,Glacier NP - Beaver R Valley,2.0,51.442303,-117.47808,1982-05-05,1982.0,5.0
3272056403,Oakleaf Regional Park,7.0,49.300407,-124.17033,2020-05-15,2020.0,5.0
2758942239,Reifel Bird Sanctuary,150.0,49.1,-123.185,2019-11-15,2019.0,11.0
1291977790,Hardy Bay,,50.739722,-127.470278,1940-11-07,1940.0,11.0
823058354,Salmon Arm Bay (General),12.0,50.709747,-119.28043,2012-08-01,2012.0,8.0
4366996189,Dale Lake/Johnson rds.,8.0,52.89716,-122.419235,2022-04-23,2022.0,4.0
4225258708,"Swan Lake Nature Sanctuary, Victoria",,48.464558,-123.3738,2022-02-27,2022.0,2.0
2122330187,Victoria--Munn Road/Pike Lake Power Lines,2.0,48.491123,-123.45508,2018-01-25,2018.0,1.0
824629224,North Vancouver--Maplewood Conservation Area,80.0,49.305843,-123.00034,2012-06-13,2012.0,6.0
3170211093,North Van--Waterfront Park,32.0,49.31182,-123.085884,2020-08-14,2020.0,8.0
1773728277,Sunnygrove Terrace,150.0,48.50976,-123.36284,2016-11-15,2016.0,11.0
1159320689,West Kelowna--Mouth of Powers Creek,140.0,49.815502,-119.62352,2014-03-10,2014.0,3.0
4260971844,North Vancouver--Maplewood Conservation Area,18.0,49.305843,-123.00034,2022-04-05,2022.0,4.0
4215788418,"Chilcotin-Bella Coola Highway, Cariboo J, British Columbia, CA (51.898, -124.583)",2.0,51.89756,-124.5832,2022-09-06,2022.0,9.0
1794521209,Pitt Meadows--Hale Rd dike,,49.26383,-122.67759,2013-01-31,2013.0,1.0
3606955610,Wycliffe,1.0,49.60192,-115.86473,2021-05-04,2021.0,5.0
2753314140,"Highway 20, stop 1, east of Fraser River",,52.02173,-122.25093,2019-03-31,2019.0,3.0
1782752315,Vaseux Lake Bird Observatory,8.0,49.30998,-119.54459,2016-09-02,2016.0,9.0
42450036,"Masset, British Columbia",,54.016667,-132.15,1910-05-15,1910.0,5.0
2217401288,Martindale Flats,48.0,48.56149,-123.381996,2018-12-31,2018.0,12.0
2800016216,Brooksdale Area Loop,50.0,49.03378,-122.686516,2019-09-12,2019.0,9.0
3613162189,Rocky Point Bird Observatory (restricted access),25.0,48.3198,-123.54715,2021-07-27,2021.0,7.0
2141291168,Iona Island (General),,49.22133,-123.2111,2015-05-18,2015.0,5.0
824629869,Lillooet--Seton Lake,12.0,50.668766,-121.98866,2012-01-19,2012.0,1.0
1362295580,Kelowna--Munson Pond,10.0,49.864048,-119.46036,2015-04-25,2015.0,4.0
4202022895,Malahat Skywalk,1.0,48.56546,-123.52699,2022-03-13,2022.0,3.0
934307764,Manning Park--Lone Duck Lake,,49.06476,-120.8318,2012-06-15,2012.0,6.0
2764064347,"(53.247, -131.823)sandspit tiwn",4.0,53.246788,-131.82263,2019-06-11,2019.0,6.0
4207671851,Kamloops--Rose Hill Road,20.0,50.618755,-120.25051,2022-03-23,2022.0,3.0
3679876041,Ladner Harbour Park,2.0,49.09334,-123.09184,2021-03-26,2021.0,3.0
2788494543,Witty's Lagoon Regional Park,,48.386383,-123.51718,2010-05-08,2010.0,5.0
2229896404,Rocky Point Bird Observatory (restricted access),33.0,48.3198,-123.54715,2013-09-08,2013.0,9.0
4185898800,Penticton Airport--YYF,3.0,49.46138,-119.60573,2022-01-07,2022.0,1.0
3205683998,Reifel Bird Sanctuary,,49.1,-123.185,2014-12-29,2014.0,12.0
4239117523,Blenkinsop--Lohbrunner Rd East,2.0,48.49181,-123.35887,2022-06-12,2022.0,6.0
2122307566,yard,1.0,49.294403,-122.85944,2018-03-15,2018.0,3.0
1389153576,Abbotsford--Willband Creek Park,40.0,49.07065,-122.28117,2015-09-26,2015.0,9.0
3641049389,Kelowna--Munson Pond,2.0,49.864048,-119.46036,2021-05-07,2021.0,5.0
1745138731,Iona Island (General),,49.22133,-123.2111,2016-06-12,2016.0,6.0
1735280416,BC - Radium Valley Vacation Resort,5.0,50.631523,-116.082016,2016-05-08,2016.0,5.0
2090556719,Martindale Flats--McIntyre Reservoir,,48.56911,-123.379814,2017-11-01,2017.0,11.0
3171070209,Vancouver--Kitsilano Beach,,49.27385,-123.15387,2020-07-06,2020.0,7.0
4189710585,Wardner--Tokai Ranch,2.0,49.433502,-115.49446,2022-05-19,2022.0,5.0
2082449908,Swartz Bay ferry terminal,4.0,48.68832,-123.41014,2017-06-20,2017.0,6.0
3566017741,Walker Valley--North of 108 Mile Lake,15.0,51.754604,-121.40949,2021-04-13,2021.0,4.0
3528169697,Otter lake,18.0,50.4155,-119.25092,2021-06-11,2021.0,6.0
3299216238,Kelowna--Carney Pond,14.0,49.928032,-119.39085,2020-05-14,2020.0,5.0
1185630046,Vancouver--Fraser River Trail,17.0,49.215958,-123.169785,2014-08-30,2014.0,8.0
3642402980,Abbotsford--Willband Creek Park,,49.07065,-122.28117,2021-06-13,2021.0,6.0
3620221224,Tatlayoko Lake Bird Observatory,35.0,51.653282,-124.40461,2017-09-10,2017.0,9.0
1184131313,Butchart Gardens,4.0,48.56478,-123.4694,2001-04-17,2001.0,4.0
4248871103,East Sooke Regional Park--Beechey Head,5.0,48.31402,-123.653946,2022-11-19,2022.0,11.0
3236094069,Revelstoke - 8 Mile,5.0,50.91247,-118.13566,2020-06-18,2020.0,6.0
1744244455,Esquimalt Lagoon,,48.4294,-123.45837,2016-06-08,2016.0,6.0
1736296896,Salmon Arm Bay (General),10.0,50.709747,-119.28043,2016-05-11,2016.0,5.0
4368498480,Vancouver--Trout Lake (John Hendry Park),20.0,49.25596,-123.062325,2022-09-08,2022.0,9.0
3575634755,VIPQ-2 - Craig Bay to Rathtrevor,3.0,49.319042,-124.25236,2021-12-12,2021.0,12.0
2156098315,Squamish River Estuary,36.0,49.70507,-123.17841,2018-04-11,2018.0,4.0
984335229,Chilliwack,1.0,49.15403,-121.95356,2010-05-02,2010.0,5.0
4366884878,Creston Valley Wildlife Centre,2.0,49.11972,-116.631386,2022-05-16,2022.0,5.0
580751054,"Scout Island, Williams Lake",1.0,52.11975,-122.11961,2010-08-29,2010.0,8.0
4228916189,Roberts Creek Jetty,2.0,49.41773,-123.64203,2022-04-02,2022.0,4.0
948466288,Nanaimo--Linley Valley (Cottle Lake) Park,2.0,49.21844,-123.98304,2013-04-23,2013.0,4.0
3648821172,Metchosin--Pedder Bay,5.0,48.348892,-123.575935,2021-07-31,2021.0,7.0
1757167375,White Rock,,49.02608,-122.79939,1998-01-04,1998.0,1.0
3592788935,Nelson--Grohman Creek Road,4.0,49.50526,-117.35888,2021-04-18,2021.0,4.0
974616163,"Elk Lake, Victoria",127.0,48.535557,-123.39139,2013-12-14,2013.0,12.0
3637179148,North Vancouver--Maplewood Conservation Area,6.0,49.305843,-123.00034,2021-04-27,2021.0,4.0
2662410392,Canada Place,4.0,49.288692,-123.11045,2019-03-15,2019.0,3.0
2685980695,Derby Reach Regional Park,4.0,49.19823,-122.594505,2019-05-09,2019.0,5.0
3524156546,Cranbrook--Idlewild Park,6.0,49.4991,-115.729904,2021-05-07,2021.0,5.0
2688782393,Sooke--Whiffin Spit Park,105.0,48.356464,-123.724594,2019-07-11,2019.0,7.0
1775578679,Esquimalt Lagoon,12.0,48.4294,-123.45837,2016-11-25,2016.0,11.0
2111884637,"35 Louis Estates Rd., Vernon BC",18.0,50.339924,-119.32388,2017-12-14,2017.0,12.0
2620123615,,,49.270658,-123.194003,2020-04-30T15:36:18,2020.0,4.0
2717087894,"Irene Pearce Trail, 457 224 Street, Langley City, British Columbia, CA (49.011, -122.604)",11.0,49.011078,-122.60385,2019-10-12,2019.0,10.0
3136522685,Nakusp - general,26.0,50.24248,-117.79992,2020-03-07,2020.0,3.0
