gbifID,locality,individualCount,decimalLatitude,decimalLongitude,eventDate,year,month
2235525665,,,48.406837,-123.322935,2019-03-31T11:54,2019.0,3.0
1790165164,West Vancouver--Ambleside Park,1.0,49.323944,-123.14484,2014-02-07,2014.0,2.0
1166204837,Maplewood 08,3.0,49.302345,-123.00661,2014-04-05,2014.0,4.0
4370449290,Pitt Meadows--Grant Narrows,30.0,49.348415,-122.619095,2022-06-06,2022.0,6.0
2067717431,Squamish River Estuary,,49.70507,-123.17841,2017-05-19,2017.0,5.0
3524423271,Kamloops -- Dufferin Wetland,4.0,50.66166,-120.393616,2021-04-07,2021.0,4.0
1365736175,Vancouver--Locarno Beach,2.0,49.27489,-123.21016,2015-05-07,2015.0,5.0
821886962,Lillooet--Seton Lake,40.0,50.668766,-121.98866,2011-11-18,2011.0,11.0
3234033289,Nanaimo--Neck Point Park,3.0,49.235535,-123.96475,2020-03-17,2020.0,3.0
3265561700,Delta--Brunswick Point,40.0,49.06564,-123.15415,2020-06-19,2020.0,6.0
3524853126,Pitt Meadows--Catbird Slough,2.0,49.33425,-122.6423,2021-05-06,2021.0,5.0
2180770491,Eaglet Lake (general location),30.0,54.098103,-122.30004,2018-08-23,2018.0,8.0
1390075760,Nanaimo--Buttertubs West Marsh,50.0,49.17138,-123.979126,2015-10-01,2015.0,10.0
3673604156,Vancouver--Queen Elizabeth Park,2.0,49.241943,-123.112206,2021-04-11,2021.0,4.0
1193737824,230 Goward Rd,,48.518906,-123.43045,2014-10-29,2014.0,10.0
2182726584,Port Coquitlam--Blakeburn Lagoons,15.0,49.26583,-122.73676,2018-09-01,2018.0,9.0
3528734949,Ladner Harbour Park,2.0,49.09334,-123.09184,2021-01-06,2021.0,1.0
1249286373,,,49.189726,-123.948913,2014-05-06T16:03:46,2014.0,5.0
210607238,Penticton--Okanagan Lake,48.0,49.50389,-119.59618,2009-02-13,2009.0,2.0
1202734772,"Langley, BC, CA",,49.117027,-122.64107,1997-10-04,1997.0,10.0
3595491299,Kamloops--McArthur Island Park,35.0,50.696064,-120.377625,2021-06-17,2021.0,6.0
2209659363,Hornby Island--Ford Cove,25.0,49.497345,-124.67684,2018-10-23,2018.0,10.0
4364081836,"School Road Dyke, Harrison River",8.0,49.24429,-121.94986,2022-03-13,2022.0,3.0
1786453123,Reifel Bird Sanctuary,200.0,49.1,-123.185,1985-10-30,1985.0,10.0
1200402921,Creston--Speers/Kootenay River Roads,466.0,49.10235,-116.54024,2014-12-20,2014.0,12.0
3606188084,Carvolth Greenspace,1.0,49.160866,-122.66143,2021-06-01,2021.0,6.0
2662877297,Stanley Park--Lost Lagoon,,49.29563,-123.140305,2019-04-07,2019.0,4.0
580737929,"1887 Frances Street, Duncan, BC",15.0,48.784557,-123.66271,2010-10-18,2010.0,10.0
3224322272,Sunoka Provincial Park,40.0,49.564167,-119.63167,2020-02-15,2020.0,2.0
2762662427,Turtle Main and Turtle Lake,5.0,49.32748,-124.975395,2019-07-01,2019.0,7.0
4352212604,Witty's Lagoon Regional Park,19.0,48.386383,-123.51718,2022-07-13,2022.0,7.0
4345855987,Cheam Lake Wetlands Regional Park,80.0,49.195557,-121.7525,2022-02-21,2022.0,2.0
4228956366,Tranquille Marsh,,50.72275,-120.50346,2022-06-17,2022.0,6.0
4260736462,Whistler--Fitzsimmons Fan Park & Nicklaus North Golf Course,15.0,50.14495,-122.94628,2022-05-12,2022.0,5.0
4327951665,Reifel Bird Sanctuary,80.0,49.1,-123.185,2005-02-20,2005.0,2.0
2133333212,Nanaimo--Neck Point Park,12.0,49.235535,-123.96475,2018-03-07,2018.0,3.0
3665872759,Duncan Sewage Lagoons,15.0,48.778175,-123.68132,2021-01-16,2021.0,1.0
4335566118,Stanley Park--Brockton Point,3.0,49.29993,-123.1169,2022-02-12,2022.0,2.0
1735017548,Sechelt Golf Course,2.0,49.489803,-123.78296,2016-05-08,2016.0,5.0
3691709711,Esquimalt Lagoon,19.0,48.4294,-123.45837,2021-09-21,2021.0,9.0
2161127652,Creston Valley Wildlife Centre,7.0,49.11972,-116.631386,2018-05-12,2018.0,5.0
2735940394,"Mill Lake, Abbotsford",,49.044846,-122.31027,2019-04-08,2019.0,4.0
2685436676,Kamloops--McArthur Island Park,2.0,50.696064,-120.377625,2019-05-01,2019.0,5.0
1397079155,"178 Penticton, Oxbow",16.0,49.46839,-119.592606,2015-11-07,2015.0,11.0
580032750,Heffley Lake,7.0,50.83533,-120.05424,2010-06-27,2010.0,6.0
1391401300,Oak Bay--Cattle Point,17.0,48.43874,-123.29416,2015-10-10,2015.0,10.0
2141760171,Martindale Flats--McIntyre Reservoir,20.0,48.56911,-123.379814,2018-04-03,2018.0,4.0
275841903,Burnaby Lake Regional Park (general),1.0,49.24299,-122.944046,2001-12-29,2001.0,12.0
821903248,Port Clements,2.0,53.685677,-132.1741,2011-10-15,2011.0,10.0
3600676851,"Swan Lake Nature Sanctuary, Victoria",14.0,48.464558,-123.3738,2021-03-07,2021.0,3.0
3175916089,Colony Farm,12.0,49.23429,-122.79964,2020-05-28,2020.0,5.0
1784632733,Oliver--Deadman Lake,2.0,49.091946,-119.55361,1988-04-15,1988.0,4.0
4181799225,Cranbrook Irrigation Fields,14.0,49.55488,-115.63308,2022-05-06,2022.0,5.0
4390148964,Poker Creek bird census section 3,8.0,48.429146,-123.3062,2022-05-01,2022.0,5.0
3681778565,Courtenay airpark,,49.68007,-124.979195,2021-08-06,2021.0,8.0
3525549374,Little Qualicum estuary,1.0,49.3665,-124.49226,2021-05-30,2021.0,5.0
2207156472,Salsbury Rd off Hwy 95,32.0,50.988003,-116.46284,2018-10-15,2018.0,10.0
1399223942,Reifel Bird Sanctuary,,49.1,-123.185,2015-11-27,2015.0,11.0
3525901292,Ruskin Dam Picnic Area,3.0,49.192886,-122.40756,2021-04-11,2021.0,4.0
2104944962,Penticton--Okanagan River,8.0,49.47396,-119.597015,2018-01-12,2018.0,1.0
1181525849,"Swan Lake Nature Sanctuary, Victoria",18.0,48.464558,-123.3738,2014-07-10,2014.0,7.0
1365600770,Vaseux Lake Bird Observatory,1.0,49.30998,-119.54459,2015-05-06,2015.0,5.0
2693264060,Rawlings Lake,13.0,50.273212,-118.88168,2019-05-11,2019.0,5.0
1181238664,Squamish River Estuary,37.0,49.70507,-123.17841,2014-07-23,2014.0,7.0
4153369176,,,49.11388,-122.546849,2023-05-19T11:30,2023.0,5.0
3674843188,"Bear Hill Regional Park, Saanich",42.0,48.54633,-123.40668,2021-04-30,2021.0,4.0
945247040,Kelowna--Maude-Roxby Sanctuary,2.0,49.870506,-119.49701,2013-03-31,2013.0,3.0
2227472024,Rocky Point Bird Observatory (restricted access),14.0,48.3198,-123.54715,2013-10-06,2013.0,10.0
948202355,Golden--Reflection Lake,1.0,51.283596,-116.94597,2013-04-21,2013.0,4.0
3142810555,Wasa Lake Provincial Park,15.0,49.79234,-115.73782,2020-03-22,2020.0,3.0
1345779231,Sooke--Whiffin Spit Park,22.0,48.356464,-123.724594,2015-01-12,2015.0,1.0
3691599443,Burnaby Lake--Piper Spit,12.0,49.242077,-122.93545,2021-09-05,2021.0,9.0
4362515653,VI-Blower Road Woods,12.0,49.310856,-124.299835,2009-05-12,2009.0,5.0
2677649890,Invermere--Cardiff Ave Beach/Lake Windermere,2.0,50.46091,-115.99223,2019-04-10,2019.0,4.0
2801827261,Reifel Bird Sanctuary,,49.1,-123.185,2009-03-06,2009.0,3.0
3674427579,Kelowna--Munson Pond,4.0,49.864048,-119.46036,2021-04-27,2021.0,4.0
4320919558,Columbia Beach,16.0,49.35418,-124.37037,2022-09-06,2022.0,9.0
2063413902,Serpentine Fen,10.0,49.085617,-122.82616,2017-05-09,2017.0,5.0
3203747167,Reifel Bird Sanctuary,70.0,49.1,-123.185,2020-10-03,2020.0,10.0
3600449701,Delta--Tilbury Island River Trail,38.0,49.147312,-123.01254,2021-07-14,2021.0,7.0
2163610602,Goose Lake - south end,2.0,50.310432,-119.285385,2018-04-18,2018.0,4.0
3195091059,"Elk Lake, Victoria",6.0,48.535557,-123.39139,2020-08-27,2020.0,8.0
1719967823,Vernon—Otter Lake,4.0,50.412464,-119.248764,2016-02-14,2016.0,2.0
2704481081,Vancouver--Queen Elizabeth Park,1.0,49.241943,-123.112206,2019-08-09,2019.0,8.0
2734441951,Stanley Park,38.0,49.302967,-123.143265,2019-01-12,2019.0,1.0
823840694,Blaeberry--Kettleson Pond & Road,6.0,51.431026,-117.02161,2012-05-09,2012.0,5.0
2182754412,Muir Creek Mouth,4.0,48.379948,-123.86611,2018-09-01,2018.0,9.0
3205309823,Vancouver--Hadden & Vanier Parks,121.0,49.277885,-123.14747,2020-10-20,2020.0,10.0
3532339339,Harrison Hot Springs--Beach & town,27.0,49.303905,-121.7848,2021-07-10,2021.0,7.0
1169397799,Squamish River Estuary,,49.70507,-123.17841,2014-05-07,2014.0,5.0
1188359242,Central Saanich--ȾIKEL (Maber Flats),158.0,48.572468,-123.43052,2014-09-19,2014.0,9.0
2072930904,Columbia Beach,18.0,49.35418,-124.37037,2017-08-03,2017.0,8.0
1400365816,Sunnygrove Terrace,58.0,48.509697,-123.36299,2015-12-04,2015.0,12.0
581402721,Vernon--Swan Lake,12.0,50.317257,-119.25786,2011-03-26,2011.0,3.0
1725156202,Vancouver--Queen Elizabeth Park,4.0,49.241943,-123.112206,2016-04-03,2016.0,4.0
3158226347,Oak Bay--Cattle Point,2.0,48.43874,-123.29416,2020-03-22,2020.0,3.0
1381590794,Reifel Bird Sanctuary,30.0,49.1,-123.185,2015-08-11,2015.0,8.0
1174148839,Grohman Narrows Provincial Park,4.0,49.494835,-117.34433,2014-05-28,2014.0,5.0
4222766456,Saanich--Panama Flats,6.0,48.476334,-123.4029,2022-05-06,2022.0,5.0
198859780,Vanier Park [Vancouver],11.0,49.27709,-123.14478,2008-10-18,2008.0,10.0
3214436416,Parksville--Morningstar Golf Course ponds,2.0,49.335804,-124.36592,2020-12-24,2020.0,12.0
4288378488,Oak Bay--Cattle Point,15.0,48.43874,-123.29416,2022-08-15,2022.0,8.0
4275952218,Kelowna--Robert Lake,60.0,49.93562,-119.408905,2022-08-05,2022.0,8.0
2720808393,Stanley Park--Beaver Lake,2.0,49.30419,-123.13901,2013-03-10,2013.0,3.0
1750262436,Shelley sludge lagoons,28.0,53.94982,-122.62768,2016-07-10,2016.0,7.0
3215565650,Penticton--Yacht Club/Esplanade,1.0,49.50573,-119.58239,2020-12-02,2020.0,12.0
579691214,Rocky Point Bird Observatory (restricted access),8.0,48.3198,-123.54715,2004-10-14,2004.0,10.0
1370213407,Duncan--Art Mann Park (Quamichan Lk south end),15.0,48.78804,-123.67146,2015-05-23,2015.0,5.0
2089619891,Portuguese Joe's,52.0,49.67901,-124.965515,2017-08-31,2017.0,8.0
3190277796,Vaseux Lake,71.0,49.299744,-119.53327,2020-08-27,2020.0,8.0
1741822883,"Elizabeth Lake, Cranbrook",8.0,49.498783,-115.79311,2016-05-25,2016.0,5.0
277837365,North Vancouver--Maplewood Conservation Area,,49.305843,-123.00034,2009-05-12,2009.0,5.0
273134378,Osoyoos--Road 22 and dykes (general),50.0,49.089268,-119.535194,2010-02-06,2010.0,2.0
4280580223,Central Saanich--ȾIKEL (Maber Flats),2.0,48.572468,-123.43052,2022-05-03,2022.0,5.0
3240012121,Hatzic--Westminster Abbey,2.0,49.153957,-122.27084,2020-04-16,2020.0,4.0
4203757938,Hastings Park Sanctuary,,49.282673,-123.041794,2022-05-30,2022.0,5.0
4348655297,Big Bar Lake Provincial Park,20.0,51.31064,-121.81871,2022-05-13,2022.0,5.0
4241244556,South Pender Island--Brooks Point Park,1.0,48.73464,-123.1878,2022-03-05,2022.0,3.0
2063670771,Vancouver--Queen Elizabeth Park,4.0,49.241943,-123.112206,2017-04-23,2017.0,4.0
3592644997,My house near Quicks Bottom Park,1.0,48.498203,-123.39538,2021-04-28,2021.0,4.0
2127945934,Eaglet Lake (general location),275.0,54.098103,-122.30004,1997-11-15,1997.0,11.0
1716444883,Bowker/Queen's Park,6.0,48.42812,-123.305824,2016-02-16,2016.0,2.0
4308481416,Ship's Point Staircase,9.0,49.503418,-124.80137,2022-12-07,2022.0,12.0
3677919716,"Vernon Commonage--MacKay Reservoir, east side",44.0,50.19735,-119.36051,2021-07-19,2021.0,7.0
2778457251,"Vancouver - Coal Harbour Seawall, Vancouver CA-BC (49.2926,-123.1276)",2.0,49.292572,-123.12764,2019-06-14,2019.0,6.0
2679068480,Cowichan Bay,53.0,48.753075,-123.63868,2019-03-25,2019.0,3.0
2772500794,Nelson--waterfront,6.0,49.498905,-117.291245,2019-04-23,2019.0,4.0
579954505,West Vancouver--Lighthouse Park,25.0,49.336113,-123.26361,2009-01-11,2009.0,1.0
3566722533,"Meadow Lk Rd, Clinton CA-BC 51.25453, -121.59787",2.0,51.254536,-121.59787,2021-05-02,2021.0,5.0
1386758762,Iona Island (General),40.0,49.22133,-123.2111,2015-09-12,2015.0,9.0
3273236446,Richmond--Garden City Park,30.0,49.164585,-123.12302,2020-08-26,2020.0,8.0
1394672634,Stanley Park--tennis courts and heron colony,3.0,49.292286,-123.14517,2015-10-30,2015.0,10.0
3255607820,Nanaimo--Buttertubs West Marsh,10.0,49.17138,-123.979126,2020-02-25,2020.0,2.0
277755517,Nanaimo--Buttertubs Marsh,100.0,49.170925,-123.970764,2009-10-29,2009.0,10.0
2784002653,West Fraser Timber Park,54.0,52.58,-122.29,2019-10-19,2019.0,10.0
4243682762,Kelowna--Robert Lake,2.0,49.93562,-119.408905,2022-04-21,2022.0,4.0
1179064685,Vancouver--Jericho Park,2.0,49.27159,-123.194374,2014-06-25,2014.0,6.0
3279237899,Knutsford,5.0,50.624065,-120.33119,2018-09-02,2018.0,9.0
2073941014,Blaeberry--Holmes-Deakin,5.0,51.445328,-117.01609,2017-06-08,2017.0,6.0
4340619126,Kelowna--Maude-Roxby Sanctuary,4.0,49.870506,-119.49701,2022-04-07,2022.0,4.0
2053839771,Iona Island (General),25.0,49.22133,-123.2111,2017-04-13,2017.0,4.0
2233447152,Rocky Point Bird Observatory (restricted access),26.0,48.3198,-123.54715,2005-10-06,2005.0,10.0
2060369969,Columere Park,2.0,50.295647,-115.86255,2017-04-10,2017.0,4.0
4222657455,Reifel Bird Sanctuary,600.0,49.1,-123.185,2005-07-18,2005.0,7.0
3248260494,West Creston--Peterman/Balsam Roads,2.0,49.06944,-116.59803,2020-04-22,2020.0,4.0
958758651,North Barriere Lake,8.0,51.342194,-119.823586,2013-06-04,2013.0,6.0
1745745999,Stanley Park--Lost Lagoon,60.0,49.29563,-123.140305,2016-06-16,2016.0,6.0
4382839185,Vancouver--Hadden & Vanier Parks,,49.277885,-123.14747,2022-05-06,2022.0,5.0
2778762984,Tranquille Marsh,150.0,50.72275,-120.50346,2019-06-03,2019.0,6.0
3558817514,"Timothy Ranch Area, Kalum Lake Rd, Terrace CA-BC",125.0,54.522865,-128.63696,2021-04-11,2021.0,4.0
3573283838,Mountainview,8.0,49.243206,-123.09704,2021-08-15,2021.0,8.0
4390856228,"Fishtrap Creek Park, Abbotsford CA-BC 49.05555, -122.35099",16.0,49.055553,-122.35099,2022-05-28,2022.0,5.0
4188937681,Port Alberni--Somass Estuary & sewage lagoons,,49.25543,-124.837234,2022-01-08,2022.0,1.0
2711753012,Stanley Park,100.0,49.302967,-123.143265,1994-02-14,1994.0,2.0
4597386916,,,48.46541,-123.368674,2024-03-14T13:56:39,2024.0,3.0
1149193968,Delta - John Oliver Municipal Park,1500.0,49.098526,-122.904076,2014-01-01,2014.0,1.0
2059101460,Bowron Lake Provincial Park--Bowron River,12.0,53.20562,-121.31155,2017-05-31,2017.0,5.0
3510112361,Fort Steele--Old Fort & Kootenay River,2.0,49.612267,-115.63248,2021-03-09,2021.0,3.0
3655281098,Revelstoke--Cartier Bay & Cartier Point,7.0,50.923058,-118.148,2021-05-06,2021.0,5.0
4204316689,Nelson--waterfront,22.0,49.498905,-117.291245,2022-01-28,2022.0,1.0
4248663363,Reifel Bird Sanctuary,30.0,49.1,-123.185,2022-03-29,2022.0,3.0
1350940211,Revelstoke Greenbelt,1.0,50.986946,-118.2075,2015-02-17,2015.0,2.0
3651057531,"Columbia Lake, East Kootenay CA-BC 50.20256, -115.83756",1.0,50.202557,-115.837555,2021-04-17,2021.0,4.0
1722304944,Cbk--Eff Irrig all,4.0,49.553455,-115.63476,2016-03-19,2016.0,3.0
582782979,"Tofino, Jensen's Bay",16.0,49.11759,-125.88143,2011-04-15,2011.0,4.0
2745566983,Iona Island (General),10.0,49.22133,-123.2111,2019-02-15,2019.0,2.0
130000555,Bummer Flats-north,7.0,49.71389,-115.71028,1994-04-07,1994.0,4.0
2779980747,Reifel Bird Sanctuary,50.0,49.1,-123.185,2019-12-29,2019.0,12.0
2143613626,North Pender Hope Bay,3.0,48.801964,-123.27613,2018-03-28,2018.0,3.0
3759903209,,,49.941665,-119.408795,2022-03-28T13:22,2022.0,3.0
167177210,Airport Road,7.0,49.598484,-115.80136,2007-03-28,2007.0,3.0
4208066781,"Yale, British Columbia, CA (49.717, -121.017)",2.0,49.716515,-121.01741,2022-06-07,2022.0,6.0
3591804922,Blenkinsop--Lohbrunner Rd East,2.0,48.49181,-123.35887,2021-04-25,2021.0,4.0
3673040096,Vancouver--Fraser River Trail,2.0,49.215958,-123.169785,2021-04-25,2021.0,4.0
4241057292,"Casa Linda Dr, Saanich",2.0,48.491367,-123.39397,2022-11-15,2022.0,11.0
823521619,"Swan Lake Nature Sanctuary, Victoria",,48.464558,-123.3738,2012-04-22,2012.0,4.0
4194039482,Reifel Bird Sanctuary,80.0,49.1,-123.185,2022-09-11,2022.0,9.0
2034219855,Longview (formerly Vantreight) Farms bulb fields,220.0,48.607407,-123.40421,2017-02-26,2017.0,2.0
2739566416,Little Qualicum estuary,1.0,49.3665,-124.49226,2019-05-18,2019.0,5.0
2984362642,,,49.168165,-123.972041,2020-11-07T18:15,2020.0,11.0
4275167943,Delta—Westham Island,100.0,49.08834,-123.14819,1980-01-20,1980.0,1.0
3255132217,Hastings Park Sanctuary,2.0,49.282673,-123.041794,2020-05-11,2020.0,5.0
3295459557,Port Alberni--Somass Estuary & sewage lagoons,100.0,49.25543,-124.837234,2020-11-01,2020.0,11.0
3595531429,Cheam Lake Wetlands Regional Park,30.0,49.195557,-121.7525,2021-03-03,2021.0,3.0
2724676091,Reifel Bird Sanctuary,40.0,49.1,-123.185,2008-04-20,2008.0,4.0
4315169212,Richmond--Garden City Park,2.0,49.164585,-123.12302,2022-05-06,2022.0,5.0
580280251,Chilliwack--Island 22 Park,60.0,49.193794,-121.97944,2010-11-21,2010.0,11.0
2755801401,Pritchard Creek,2.0,57.723495,-131.51355,2019-05-11,2019.0,5.0
2203865551,Nanaimo--Westwood Lake,,49.162407,-123.997086,2005-05-17,2005.0,5.0
3271857683,Nelson--waterfront,8.0,49.498905,-117.291245,2020-10-02,2020.0,10.0
3293303716,Vancouver--Hadden & Vanier Parks,106.0,49.277885,-123.14747,2020-12-04,2020.0,12.0
1769677238,Victoria West--Songhees Walkway,4.0,48.42964,-123.39075,2016-10-26,2016.0,10.0
273134297,Scout Island Nature Centre,80.0,52.11983,-122.11948,2010-03-01,2010.0,3.0
2145760699,Wardner--Ha Ha Creek Rd,26.0,49.434647,-115.493454,2018-04-04,2018.0,4.0
4359067930,Nanoose Bay--Cottam Point,4.0,49.314102,-124.21443,2022-03-25,2022.0,3.0
3282674058,Denman Island,12.0,49.542194,-124.79047,2020-11-28,2020.0,11.0
4383197587,Saanich--Panama Flats,10.0,48.476334,-123.4029,2022-04-15,2022.0,4.0
1771945247,The Yard™,50.0,49.123154,-121.972015,2016-11-09,2016.0,11.0
4322363548,Barnet Marine Park,6.0,49.291546,-122.924355,2022-03-01,2022.0,3.0
3599706010,"2359 Beverly St, Duncan CA-BC 48.78514, -123.68660",138.0,48.785137,-123.6866,2021-02-02,2021.0,2.0
3283474013,Nanaimo--Long Lake,41.0,49.21112,-124.02022,2020-12-27,2020.0,12.0
29823035,Sargeant Bay,,49.47163,-123.84618,2003,2003.0,
6391533,V7B 1W8 Richmond,,49.20696,-123.16681,2002-02-18,2002.0,2.0
3507977210,off Williams Beach Rd,10.0,49.821373,-125.04639,2021-02-21,2021.0,2.0
3564918816,"Vancouver, BC, CA",,49.25181,-123.12669,1974-05-24,1974.0,5.0
3281477638,Kelowna--Robert Lake,60.0,49.93562,-119.408905,2020-09-21,2020.0,9.0
3277078376,"901–919 Matheson Lake Park Rd, Victoria CA-BC 48.35245, -123.58242",2.0,48.35245,-123.58242,2020-12-27,2020.0,12.0
821282469,"Stanley Pk (Georgia St entrance), Vancouver BC",2.0,49.2948,-123.1362,1981-11-16,1981.0,11.0
3651249036,Boswell to Phillips Rd,2.0,50.261646,-119.225006,2021-03-26,2021.0,3.0
4356497744,Colony Farm,7.0,49.23429,-122.79964,2022-05-21,2022.0,5.0
2720285369,UBC--Cecil Green & Museum of Anthropology grounds,5.0,49.27014,-123.26062,2017-05-24,2017.0,5.0
2213954548,Rithet's Bog,1.0,48.4915,-123.37905,2018-12-20,2018.0,12.0
1794274693,Englishman River Estuary (general),211.0,49.330807,-124.2949,2003-11-01,2003.0,11.0
3746994936,,,49.877989,-119.430139,2022-03-19T10:24,2022.0,3.0
4352940355,Home,4.0,49.309147,-124.306175,2022-04-14,2022.0,4.0
4223583095,"China Beach, Capital CA-BC 48.42898, -124.08560",20.0,48.428986,-124.0856,2022-06-07,2022.0,6.0
1738197427,Victoria--Government House,3.0,48.41783,-123.34227,2016-05-15,2016.0,5.0
4329725714,Richmond--Garden City Park,1.0,49.164585,-123.12302,2022-04-23,2022.0,4.0
278218751,Great Blue Heron Nature Reserve--Heron Loop Trail,70.0,49.094013,-122.04729,2010-03-26,2010.0,3.0
1195264870,Grasmere--Edwards Lk / Dorr Cutoff Rd,4.0,49.09152,-115.12985,2014-11-08,2014.0,11.0
3570769129,Kelowna--Munson Pond,20.0,49.864048,-119.46036,2021-09-10,2021.0,9.0
891143320,,,49.297423,-123.132362,2012-08-02,2012.0,8.0
2214925009,"2941 Dragon Lake Road, Quesnel, British Columbia, CA (52.924, -122.434)",50.0,52.92409,-122.43405,2018-11-01,2018.0,11.0
2057902089,Salmon Arm Bay (General),1.0,50.709747,-119.28043,2017-04-24,2017.0,4.0
2721871329,Port Coquitlam--Blakeburn Lagoons,20.0,49.26583,-122.73676,2019-10-05,2019.0,10.0
1380669563,Reifel Bird Sanctuary,,49.1,-123.185,2015-08-04,2015.0,8.0
3337859706,,,48.776404,-123.684424,2021-08-06T13:44,2021.0,8.0
4315740250,Fletcher Lake,5.0,51.770084,-123.07858,2022-09-25,2022.0,9.0
1369293312,Cheam Lake Wetlands Regional Park,13.0,49.195557,-121.7525,2015-05-18,2015.0,5.0
3508324709,"Swan Lake Nature Sanctuary, Victoria",2.0,48.464558,-123.3738,2021-01-25,2021.0,1.0
2218055558,Rocky Point Bird Observatory (restricted access),42.0,48.3198,-123.54715,2018-08-19,2018.0,8.0
4376649559,Reifel Bird Sanctuary,50.0,49.1,-123.185,2022-10-04,2022.0,10.0
2160765673,"Kootenay Lake--north end, Hwy. 31",4.0,50.171513,-116.95749,2018-05-05,2018.0,5.0
2101098855,Vernon--O'Keefe's Pond,47.0,50.36111,-119.28778,2017-10-28,2017.0,10.0
948205201,Green Bay,4.0,50.15279,-122.952354,1994-03-27,1994.0,3.0
976225161,West Kelowna--Mouth of Powers Creek,,49.815502,-119.62352,2013-12-29,2013.0,12.0
4340837355,South Pender Island--Brooks Point Park,2.0,48.73464,-123.1878,2022-08-28,2022.0,8.0
1358183677,Manning road,6.0,50.503166,-120.30587,2015-04-06,2015.0,4.0
3138711617,"Vancouver, BC, CA",6.0,49.25181,-123.12669,2020-03-19,2020.0,3.0
2799572471,Vancouver--Queen Elizabeth Park,125.0,49.241943,-123.112206,2019-12-14,2019.0,12.0
3300570369,Metchosin--Pedder Bay,8.0,48.348892,-123.575935,2020-08-23,2020.0,8.0
821429590,Blaeberry--Holmes-Deakin,109.0,51.445328,-117.01609,1998-09-09,1998.0,9.0
3678843573,Abbotsford--Willband Creek Park,50.0,49.07065,-122.28117,2021-03-15,2021.0,3.0
3591810146,Lavington,12.0,50.227386,-119.116776,2021-03-13,2021.0,3.0
823475736,"Hamilton Marsh, Coombs",,49.318634,-124.46566,2012-03-18,2012.0,3.0
2060033469,"Vernon, Predator Ridge",4.0,50.18954,-119.39538,2017-04-29,2017.0,4.0
2680587807,Quilchena,6.0,50.159634,-120.51539,2019-04-22,2019.0,4.0
2749853090,Port Coquitlam--Blakeburn Lagoons,7.0,49.26583,-122.73676,2019-05-09,2019.0,5.0
1724021839,Iona Island (General),3.0,49.22133,-123.2111,2016-03-28,2016.0,3.0
1791949960,Deer Lake Park,11.0,49.237682,-122.96786,2003-01-21,2003.0,1.0
3658328661,Vancouver--Trout Lake (John Hendry Park),9.0,49.25596,-123.062325,2021-11-23,2021.0,11.0
2161342631,Revelstoke--Airport Marsh and Machete Island,18.0,50.96902,-118.192375,2018-06-06,2018.0,6.0
2145755748,Uplands Park,2.0,48.441635,-123.29881,2018-03-11,2018.0,3.0
2147101927,Squamish River Estuary,20.0,49.70507,-123.17841,2018-04-08,2018.0,4.0
2208958045,Port Alberni--Somass Estuary & sewage lagoons,25.0,49.25543,-124.837234,2018-10-21,2018.0,10.0
3655209972,Vancouver--Trout Lake (John Hendry Park),6.0,49.25596,-123.062325,2021-08-16,2021.0,8.0
3670292916,Penticton--Okanagan Lake,1.0,49.50389,-119.59618,2021-03-01,2021.0,3.0
4277578419,Victoria--Summit Park Reservoir,53.0,48.4452,-123.35318,2022-11-21,2022.0,11.0
976130414,Tofino--Sharp Road Lookout,,49.125328,-125.883575,2013-12-28,2013.0,12.0
823825394,Big Tent RV Park,4.0,49.316425,-124.28622,2012-08-04,2012.0,8.0
2064579315,Airport road pond,12.0,49.591965,-115.803535,2017-05-13,2017.0,5.0
3635124834,Saanich--Panama Flats,25.0,48.476334,-123.4029,2021-06-19,2021.0,6.0
1725449104,"178 Penticton, Oxbow",2.0,49.46839,-119.592606,2016-04-04,2016.0,4.0
4229657563,Esquimalt Lagoon,40.0,48.4294,-123.45837,2022-10-01,2022.0,10.0
4362897691,Nanaimo--Neck Point Park,23.0,49.235535,-123.96475,2022-06-16,2022.0,6.0
167177651,Salmon Arm Bay--bird blind area,3.0,50.70772,-119.28513,2007-04-09,2007.0,4.0
4236144920,Vancouver--Jericho Park,2.0,49.27159,-123.194374,2022-03-20,2022.0,3.0
2697705782,Victoria--Blenkinsop Lake,36.0,48.483448,-123.3605,2019-09-07,2019.0,9.0
3218320649,Reifel Bird Sanctuary,26.0,49.1,-123.185,2020-02-03,2020.0,2.0
2233596732,Port Alberni -Somass,8.0,49.26119,-124.82387,2018-11-09,2018.0,11.0
1349970479,Penticton--Yacht Club/Esplanade,42.0,49.50573,-119.58239,2015-02-14,2015.0,2.0
977707724,Sechelt Golf Course,,49.489803,-123.78296,2012-05-16,2012.0,5.0
2180233462,Reifel Bird Sanctuary,35.0,49.1,-123.185,2018-07-02,2018.0,7.0
4308497659,"Victoria--Selkirk Waterfront, Gorge Waterway",5.0,48.440186,-123.379395,2022-12-12,2022.0,12.0
3156420792,"1891-1901 Otter Lake Cross Road, Armstrong, British Columbia, CA (50.427, -119.23)",2.0,50.426517,-119.22962,2020-05-22,2020.0,5.0
967233570,Rathtrevor Beach Provincial Park,57.0,49.32043,-124.2683,2013-09-28,2013.0,9.0
822968222,Metchosin--Swanwick Rd.,80.0,48.36104,-123.542465,2012-11-25,2012.0,11.0
3594322059,South Pender Island--Spalding Rd,6.0,48.749454,-123.20698,2021-05-22,2021.0,5.0
3222050011,Creston Channel Road,22.0,49.17489,-116.566765,2020-03-01,2020.0,3.0
1204251478,Lardeau,5.0,50.144344,-116.949036,2012-05-03,2012.0,5.0
1766598602,"1887 Frances Street, Duncan, BC",14.0,48.784557,-123.66271,2016-10-11,2016.0,10.0
1770056925,"Swan Lake Nature Sanctuary, Victoria",80.0,48.464558,-123.3738,2016-10-29,2016.0,10.0
4246129661,Valdes Island,4.0,49.058796,-123.62701,2022-06-11,2022.0,6.0
3583510492,Martindale Flats,,48.56149,-123.381996,2021-11-15,2021.0,11.0
3149415426,Yoho National Park--Field,4.0,51.397606,-116.490776,2020-04-29,2020.0,4.0
2181980335,Alaksen National Wildlife Area,44.0,49.10199,-123.17275,2018-08-24,2018.0,8.0
1735569454,Radium--Red Rock Lookout,2.0,50.63187,-116.1162,2016-04-16,2016.0,4.0
3617258418,Bowen Island--Cape Roger Curtis Lighthouse,6.0,49.339985,-123.43221,2021-06-14,2021.0,6.0
4274995728,Saanich--Panama Flats,4.0,48.476334,-123.4029,2022-04-12,2022.0,4.0
2176533303,North Vancouver--Maplewood Conservation Area,8.0,49.305843,-123.00034,2018-05-19,2018.0,5.0
4217321760,Eaglet Lake (general location),63.0,54.098103,-122.30004,2022-05-21,2022.0,5.0
824105408,Reifel Bird Sanctuary,45.0,49.1,-123.185,2012-09-30,2012.0,9.0
1768605384,Moberly Marsh/Gadsden Provincial Park,,51.398308,-117.04751,2016-10-22,2016.0,10.0
4346063764,Courtenay airpark,8.0,49.67959,-124.977455,2022-03-05,2022.0,3.0
4256654098,Surrey--Mud Bay Road (40th Ave),60.0,49.074963,-122.84358,2022-11-17,2022.0,11.0
4269804309,Vaseux Lake north end,240.0,49.30306,-119.53582,2022-07-07,2022.0,7.0
1168045814,Vancouver--VanDusen Gardens,2.0,49.23908,-123.13114,2014-05-02,2014.0,5.0
3266148819,Kitty Islet,7.0,48.41033,-123.306984,2020-05-18,2020.0,5.0
271181232,East bench,5.0,49.01941,-119.42688,2009-08-13,2009.0,8.0
1720131000,West Fernie Wetlands,4.0,49.497566,-115.0775,2016-03-08,2016.0,3.0
3519734388,Osoyoos--Meadowlark Ln/Haynes Lease (The Throne),6.0,49.094532,-119.52619,2021-03-19,2021.0,3.0
3097418337,,,48.463454,-123.373018,2021-04-18T17:04,2021.0,4.0
2755528437,North Van--Waterfront Park,7.0,49.31182,-123.085884,2019-08-15,2019.0,8.0
1720259514,Boulton Farm,60.0,49.15299,-123.730644,2016-03-09,2016.0,3.0
4076000359,,,49.080921,-119.521118,2023-03-31T17:16,2023.0,3.0
4362904532,Vancouver--South Cambie,2.0,49.24896,-123.11543,2022-03-28,2022.0,3.0
1773816731,Vernon--Kalamalka Lake,30.0,50.22677,-119.26916,2016-11-16,2016.0,11.0
3578784409,Central Saanich--ȾIKEL (Maber Flats),450.0,48.572468,-123.43052,2021-09-03,2021.0,9.0
2175122076,Wasa Sloughs,18.0,49.751667,-115.72722,2018-05-12,2018.0,5.0
3947218797,,,49.831991,-115.622692,2022-08-11T10:04:32,2022.0,8.0
4357392614,"Swan Lake Nature Sanctuary, Victoria",2.0,48.464558,-123.3738,2022-01-29,2022.0,1.0
4384094811,Horse Lake--west end,2.0,51.604053,-121.1962,2022-09-23,2022.0,9.0
4184250752,1st Street Sointula,31.0,50.623768,-127.016655,2022-01-04,2022.0,1.0
2032077196,Nanaimo--Buttertubs Marsh,53.0,49.170925,-123.970764,2017-01-04,2017.0,1.0
3653589361,Salmon Arm Bay (General),7.0,50.709747,-119.28043,2021-09-01,2021.0,9.0
3257741351,Burnaby Lake--Piper Spit,18.0,49.242077,-122.93545,2020-10-21,2020.0,10.0
2049306671,Reifel Bird Sanctuary,25.0,49.1,-123.185,2017-03-24,2017.0,3.0
3195592685,"35 Louis Estates Rd., Vernon BC",100.0,50.339924,-119.32388,2020-12-04,2020.0,12.0
3548453892,Central Saanich--ȾIKEL (Maber Flats),126.0,48.572468,-123.43052,2021-10-22,2021.0,10.0
1709691829,Nelson--waterfront,110.0,49.498905,-117.291245,2016-01-10,2016.0,1.0
130058201,Lower Kootenay Indian Reserve,14.0,49.033367,-116.525116,2006-04-17,2006.0,4.0
2716442021,Saanich--Panama Flats,150.0,48.476334,-123.4029,2019-10-19,2019.0,10.0
167232575,"Boundary Bay, Delta",,49.065937,-122.96783,2003-08-09,2003.0,8.0
3267145316,Victoria--Cedar Hill Golf Course,20.0,48.45391,-123.34548,2020-11-14,2020.0,11.0
3548436689,Vaseux Lake--south end,5.0,49.274048,-119.525116,2021-03-27,2021.0,3.0
3174717067,Burnaby Lake--Sperling Ave access,1.0,49.255344,-122.964745,2020-08-01,2020.0,8.0
1750425163,Wardner--Ha Ha Creek Rd,6.0,49.434647,-115.493454,2016-07-12,2016.0,7.0
2740623512,Victoria--Highrock Park,2.0,48.43436,-123.40662,2019-03-17,2019.0,3.0
824636003,Atlas Square 10FV88 (Princeton East),1.0,49.497147,-120.4832,2012-06-02,2012.0,6.0
3179489207,Courtenay airpark,10.0,49.68007,-124.979195,2020-08-02,2020.0,8.0
1731636279,Brydon Lagoon--Langley,4.0,49.09851,-122.67781,2016-04-27,2016.0,4.0
4385810040,Fort Rodd Hill and Fisgard Lighthouse National Historic Site,9.0,48.43205,-123.45105,2022-07-15,2022.0,7.0
3512926771,Fort Rodd Hill and Fisgard Lighthouse National Historic Site,64.0,48.43205,-123.45105,2021-01-27,2021.0,1.0
3622137666,Vancouver--Jericho Park,5.0,49.27159,-123.194374,2021-09-14,2021.0,9.0
2690507162,Eaglet Lake (general location),16.0,54.098103,-122.30004,2019-06-15,2019.0,6.0
1766604931,Tachick Lake Resort,23.0,53.93497,-124.22859,2016-10-11,2016.0,10.0
821523833,Blaeberry--Holmes-Deakin,,51.445328,-117.01609,2004-12-07,2004.0,12.0
1366415925,Kelowna--Bredin Pond,4.0,49.95884,-119.42203,2015-05-09,2015.0,5.0
3560481500,Duncan,200.0,48.77826,-123.70746,2021-12-04,2021.0,12.0
1163189910,Lillooet--Seton Lake,2.0,50.668766,-121.98866,2014-04-07,2014.0,4.0
178584332,Sooke--Whiffin Spit Park,8.0,48.356464,-123.724594,2008-09-22,2008.0,9.0
2719936049,North Van--Waterfront Park,25.0,49.31182,-123.085884,2019-09-30,2019.0,9.0
580732909,Salmon Arm Bay (General),225.0,50.709747,-119.28043,2010-11-19,2010.0,11.0
978878852,Taghum,5.0,49.491547,-117.39913,2011-04-11,2011.0,4.0
2673165405,Nakusp--waterfront,4.0,50.237648,-117.80431,2019-05-03,2019.0,5.0
1978451019,,,50.72416,-120.503951,2018-11-14,2018.0,11.0
2045267678,Great Blue Heron Nature Reserve--East Loop Trail,26.0,49.09526,-122.04165,2017-03-11,2017.0,3.0
3687831985,Smithers--Toboggan Lake,2.0,54.87061,-127.247475,2021-09-27,2021.0,9.0
2093421354,Roberts Creek Jetty,1.0,49.41773,-123.64203,2017-11-18,2017.0,11.0
129988154,Osoyoos--Road 22 and dykes (general),,49.089268,-119.535194,2003-05-13,2003.0,5.0
1365143335,Martindale Flats,28.0,48.56149,-123.381996,2015-05-05,2015.0,5.0
3660417800,Brouse Loop Road area,300.0,50.224186,-117.74737,2021-10-25,2021.0,10.0
2036165804,V1E3Z7,16.0,50.712452,-119.26558,2017-03-11,2017.0,3.0
2692830519,Stanley Park--Lost Lagoon,20.0,49.29563,-123.140305,2019-09-07,2019.0,9.0
3177040098,Richmond--Garden City Park,20.0,49.164585,-123.12302,2020-06-01,2020.0,6.0
2219458131,Burnaby Lake Regional Park (general),50.0,49.24299,-122.944046,2018-10-15,2018.0,10.0
3592039153,Victoria--King's Pond,1.0,48.461056,-123.346085,2021-02-19,2021.0,2.0
4255683011,Reifel Bird Sanctuary,150.0,49.1,-123.185,2022-10-01,2022.0,10.0
2031604803,Saanichton Bay Park,2.0,48.59703,-123.3903,2017-02-12,2017.0,2.0
1361093988,Victoria Golf Course (restricted access),7.0,48.41365,-123.29973,2015-04-12,2015.0,4.0
3661101276,Moyie,6.0,49.28841,-115.835724,2021-10-20,2021.0,10.0
2714233118,Qualicum Beach - Xmas Bird Count,38.0,49.35705,-124.441284,2019-12-15,2019.0,12.0
2167230274,Wasa Lake Provincial Park,31.0,49.79234,-115.73782,2018-05-22,2018.0,5.0
1379703691,Abbotsford--Willband Creek Park,20.0,49.07065,-122.28117,2015-07-29,2015.0,7.0
4217996076,Chilanko Marsh,31.0,52.10777,-124.14877,2022-05-20,2022.0,5.0
2204245054,Victoria--Blenkinsop Lake,22.0,48.483448,-123.3605,2018-09-24,2018.0,9.0
3621938941,Vancouver--Queen Elizabeth Park,25.0,49.241943,-123.112206,2021-01-17,2021.0,1.0
1197341541,Salmon Arm Bay (General),110.0,50.709747,-119.28043,2014-11-27,2014.0,11.0
3668387308,Pender Island - Hooson Heights,1.0,48.795364,-123.270134,2021-02-16,2021.0,2.0
4289427956,"Courtenay--Comox Harbour, 31st St",60.0,49.670593,-124.9765,2022-01-09,2022.0,1.0
4206842083,Martindale Flats--McIntyre Reservoir,130.0,48.56911,-123.379814,2022-02-06,2022.0,2.0
2049397412,Esquimalt Lagoon,6.0,48.4294,-123.45837,2017-04-24,2017.0,4.0
4290795377,Victoria--Munn Road/Pike Lake Power Lines,9.0,48.491123,-123.45508,2022-12-08,2022.0,12.0
277890278,Nelson--waterfront,150.0,49.498905,-117.291245,2008-11-17,2008.0,11.0
2108439385,Blenkinsop--Lohbrunner Rd East,67.0,48.49181,-123.35887,2018-01-26,2018.0,1.0
3511374211,Salmon Arm: Ridge Subdivision,13.0,50.683098,-119.298225,2021-03-29,2021.0,3.0
3585837919,Boundary Bay Regional Park,200.0,49.01818,-123.04611,2021-12-26,2021.0,12.0
1197827528,White Rock Pier,42.0,49.01969,-122.80589,2014-11-29,2014.0,11.0
3157760006,Invermere--Windermere Creek/Lake Windermere,1.0,50.45757,-115.99196,2020-05-02,2020.0,5.0
2201348159,Beacon Hill Park,5.0,48.41042,-123.36465,2018-09-14,2018.0,9.0
2771875816,Seton River--lower spawning channel,5.0,50.672447,-121.94296,2019-06-01,2019.0,6.0
4273571410,Tranquille,20.0,50.721813,-120.513214,2022-04-13,2022.0,4.0
2161207565,"Scout Island, Williams Lake",80.0,52.11975,-122.11961,2018-06-07,2018.0,6.0
4379240194,"Viaduct Flats, Saanich",26.0,48.498806,-123.41822,2015-02-26,2015.0,2.0
4222548542,Kelowna--Robert Lake,14.0,49.93562,-119.408905,2022-08-04,2022.0,8.0
3198962829,Sardis Park,10.0,49.127857,-121.95331,1994-04-16,1994.0,4.0
1172621828,Saanichton--Newton Heights,2.0,48.605587,-123.43629,2014-05-04,2014.0,5.0
3219049270,Courtenay airpark,513.0,49.68007,-124.979195,2020-01-05,2020.0,1.0
2153149841,Cranbrook Community Forest,4.0,49.519302,-115.71556,2018-04-29,2018.0,4.0
3625334253,Englishman River Estuary--Plummer Rd side,34.0,49.328693,-124.286736,2021-08-03,2021.0,8.0
1410913998,Chilliwack--Island 22 Park,2.0,49.193794,-121.97944,2008-08-31,2008.0,8.0
1749478346,CA-BC-Sidney-10206 Surfside Pl - 48.6585x-123.3947,60.0,48.658485,-123.39471,2016-07-09,2016.0,7.0
2100643115,Castlegar--Selkirk College Trails,17.0,49.30996,-117.64791,2017-10-27,2017.0,10.0
2080046749,Sasquatch Provincial Park - Deer Lake,16.0,49.36658,-121.68372,2017-06-09,2017.0,6.0
3651872706,Kelowna--Robert Lake,5.0,49.93562,-119.408905,2021-09-18,2021.0,9.0
1787492698,Seton Lake--by boat,2.0,50.67096,-122.00384,2011-05-06,2011.0,5.0
2792377587,North Pender--Welcome Bay,10.0,48.807037,-123.27826,2019-11-11,2019.0,11.0
2673132099,Vancouver--Queen Elizabeth Park,5.0,49.241943,-123.112206,2019-04-23,2019.0,4.0
2057621457,Ted & Marilyn's yard,3.0,48.567585,-123.46272,2017-04-02,2017.0,4.0
2736752505,Victoria--PKOLS (Mount Douglas Park),1.0,48.49255,-123.3453,2019-05-21,2019.0,5.0
210608265,"Penticton to Trout Creek, Hwy. 97",2.0,49.53334,-119.62319,1987-04-05,1987.0,4.0
3689502951,Witty's Lagoon Regional Park--Tower Point,5.0,48.383133,-123.506195,2021-12-18,2021.0,12.0
2042348652,Vancouver--Kitsilano Beach,4.0,49.27385,-123.15387,2017-02-26,2017.0,2.0
3674143863,"Swan Lake Nature Sanctuary, Victoria",6.0,48.464558,-123.3738,2021-07-11,2021.0,7.0
580008280,"Swan Lake Nature Sanctuary, Victoria",,48.464558,-123.3738,2009-03-01,2009.0,3.0
271165054,Okanagan Centre,26.0,50.046005,-119.45006,2009-12-13,2009.0,12.0
3266682378,230 Goward Rd,4.0,48.518906,-123.43045,2020-05-29,2020.0,5.0
3601464861,Somenos Marsh--Boardwalk,23.0,48.79121,-123.70926,2021-07-11,2021.0,7.0
581205197,Vernon--Okanagan Lake,150.0,50.247643,-119.35032,2011-01-01,2011.0,1.0
167180493,Salmon Arm Bay (General),250.0,50.709747,-119.28043,2007-07-13,2007.0,7.0
3683436912,Herkyelthtie Lake,2.0,53.116306,-122.843216,2021-05-02,2021.0,5.0
2214586071,Giveout FSR,1.0,49.43451,-117.261086,2018-09-30,2018.0,9.0
3231084558,Port Alberni--Somass Estuary & sewage lagoons,37.0,49.25543,-124.837234,2020-03-08,2020.0,3.0
1759164319,North Vancouver--Maplewood Conservation Area,5.0,49.305843,-123.00034,2016-09-03,2016.0,9.0
2741104518,Wasa Lake--South Pond,2.0,49.76996,-115.73135,2019-04-18,2019.0,4.0
1365978870,Douglas Lake Ranch--Rush Lake,12.0,50.25493,-120.04049,2015-05-08,2015.0,5.0
2129941505,East Ootsa--Skins Dam,,53.77326,-125.9966,1997-05-03,1997.0,5.0
3163120001,Cedar--Quennell Lake,3.0,49.07698,-123.83264,2020-05-09,2020.0,5.0
4356308261,Hornby Island--Mt Geoffrey,9.0,49.50849,-124.685425,2022-08-26,2022.0,8.0
2786998451,Malcolm Island--Rough Bay,63.0,50.648163,-127.035065,2019-09-01,2019.0,9.0
824547447,Wardner,35.0,49.41844,-115.42249,2012-04-29,2012.0,4.0
167217848,North Vancouver-Lynn Valley Park (N),2.0,49.349228,-123.01923,1997-04-17,1997.0,4.0
2087014491,Cadboro Bay -- Beach,8.0,48.458614,-123.29476,2017-08-20,2017.0,8.0
2105963442,Penticton--Okanagan Lake,6.0,49.50389,-119.59618,2017-11-19,2017.0,11.0
2738598210,Maber flats,12.0,48.534878,-123.42328,2019-05-01,2019.0,5.0
4212226844,Kelowna--Munson Pond,22.0,49.864048,-119.46036,2022-03-17,2022.0,3.0
3550343580,"Beach Grove, Delta CA-BC 49.02145, -123.05060",16.0,49.021454,-123.0506,2021-10-07,2021.0,10.0
3552480782,Portage Inlet,37.0,48.46027,-123.419426,2021-10-31,2021.0,10.0
3539996178,"Harbour, 1400 Christie Street, Masset, British Columbia, CA (54.007, -132.14)",11.0,54.00746,-132.14041,2021-10-09,2021.0,10.0
2777624333,Pitt Meadows--Grant Narrows,13.0,49.348415,-122.619095,2019-06-04,2019.0,6.0
3134020661,"Somenos Creek Dog Park Beverly Street Dike Trail Duncan, BC V9L",150.0,48.785038,-123.68601,2020-01-26,2020.0,1.0
2777303208,Burnaby Lake--Piper Spit,55.0,49.242077,-122.93545,2019-10-09,2019.0,10.0
1349457427,Stanley Park--Beaver Lake,4.0,49.30419,-123.13901,2015-02-11,2015.0,2.0
1169124734,Wilson Creek estuary,5.0,49.438385,-123.71275,2014-05-07,2014.0,5.0
4309599621,Cranbrook--Irrigation Fields North Pond,28.0,49.57958,-115.668144,2022-08-03,2022.0,8.0
4176917219,,,49.285591,-123.125764,2023-07-04T19:39,2023.0,7.0
2760860501,Harrison Hot Springs--Beach & town,29.0,49.303905,-121.7848,2019-11-02,2019.0,11.0
2790645962,"Vernon Commonage--MacKay Reservoir, south end",2.0,50.18882,-119.36514,2019-09-20,2019.0,9.0
4273023592,Victoria Golf Course (restricted access),58.0,48.41365,-123.29973,2022-12-09,2022.0,12.0
3135255141,Oldfield Rd. fields,7.0,48.543186,-123.4173,2020-01-31,2020.0,1.0
4306374649,Squamish River Estuary,17.0,49.70507,-123.17841,2022-08-29,2022.0,8.0
3675885285,"1172 Miller Rd, Bowen Island CA-BC 49.38827, -123.33239",1.0,49.38827,-123.33239,2021-04-28,2021.0,4.0
4302095758,3279 Anchorage Ave,9.0,48.417896,-123.47335,2022-02-06,2022.0,2.0
2713302919,Penticton--SS Sicamous/Riverside Park,11.0,49.50158,-119.61194,2019-10-12,2019.0,10.0
1755651448,Harrison Mills--Eagle Point Park (Chehalis Estuary),62.0,49.263245,-121.94272,2016-08-15,2016.0,8.0
3660679928,Victoria--Fisherman's Wharf,1.0,48.421944,-123.38,2021-11-04,2021.0,11.0
3681933582,"4653 Airport Way, Revelstoke, British Columbia, CA (50.915, -118.133)",2.0,50.915382,-118.13344,2021-06-02,2021.0,6.0
2745414236,West Kelowna--Mouth of Powers Creek,42.0,49.815502,-119.62352,2019-05-01,2019.0,5.0
3274675321,Esquimalt Lagoon,,48.4294,-123.45837,1990-03-18,1990.0,3.0
1173514229,Burnaby Lake--Piper Spit,40.0,49.242077,-122.93545,2014-05-24,2014.0,5.0
3208993952,Duncan Sewage Lagoons,,48.778175,-123.68132,2020-11-20,2020.0,11.0
579939207,Swan Lake - north end,225.0,50.336697,-119.253845,2008-10-25,2008.0,10.0
2204305466,Horse Lake--west end,10.0,51.604053,-121.1962,2018-08-23,2018.0,8.0
3637576934,Parksville--Morningstar Golf Course ponds,12.0,49.335804,-124.36592,2021-02-13,2021.0,2.0
2069702398,Iona Island Inner Ponds (NOW CLOSED TO PUBLIC),7.0,49.218887,-123.20556,2017-07-17,2017.0,7.0
2767255903,Boundary Bay - 96th to 112th,35.0,49.07535,-122.93996,2019-09-07,2019.0,9.0
1188031889,Meadow Lake,10.0,51.393208,-121.86722,2014-08-09,2014.0,8.0
3194772674,"Jul 25, 2020 12:08 PM-48.847, -123.244",72.0,48.84669,-123.2445,2020-07-27,2020.0,7.0
3514275980,Squamish River Estuary -- East (of central channel),44.0,49.690567,-123.16406,2021-04-26,2021.0,4.0
1175120915,Iona Island Bird Observatory,17.0,49.220062,-123.20832,2014-05-30,2014.0,5.0
3600045236,Salmon Arm Bay (General),28.0,50.709747,-119.28043,2021-01-15,2021.0,1.0
3672745717,"6324–6428 217 Rd, Rolla CA-BC 55.82640, -120.21883",32.0,55.826405,-120.218834,2021-04-11,2021.0,4.0
3641747635,Friends of Columbia Wetland (Richies Point),39.0,50.558487,-116.062836,2021-09-26,2021.0,9.0
4394803617,Courtenay airpark,16.0,49.68007,-124.979195,2022-05-06,2022.0,5.0
2728213545,Abbotsford--Willband Creek Park,30.0,49.07065,-122.28117,2019-01-11,2019.0,1.0
2094384869,Boundary Bay--72nd St. Access,13.0,49.0595,-123.02424,2017-08-26,2017.0,8.0
4374297376,"Victoria--Selkirk Waterfront, Gorge Waterway",36.0,48.440186,-123.379395,2022-11-08,2022.0,11.0
3541177617,Surrey Lake Park,2.0,49.139214,-122.800285,2021-03-07,2021.0,3.0
4369336451,CA-BC-AC-Port Alberni-Somass Motel,10.0,49.2606,-124.823395,2022-03-02,2022.0,3.0
823257088,Blackie Spit (Incl. Dunsmuir Farm & Nicomekl estuary),5.0,49.059,-122.879,2012-09-09,2012.0,9.0
1712778543,Vancouver--Fraser River Trail,50.0,49.215958,-123.169785,2016-01-30,2016.0,1.0
1159337172,Sechelt- Shores,46.0,49.49534,-123.78296,2014-03-09,2014.0,3.0
2776394051,Nanaimo--Westwood Lake,16.0,49.162407,-123.997086,2019-08-17,2019.0,8.0
4330748272,Sechelt--waterfront,1.0,49.47036,-123.75627,2022-07-22,2022.0,7.0
2156420660,Stanley Park--Lost Lagoon,56.0,49.29563,-123.140305,2018-04-26,2018.0,4.0
2090867028,Cariboo Hwy--6 Mile Lake,26.0,51.02378,-121.54822,2017-11-04,2017.0,11.0
3258024456,Reifel Bird Sanctuary,40.0,49.1,-123.185,2020-09-27,2020.0,9.0
2123313282,Central Saanich--ȾIKEL (Maber Flats),400.0,48.572468,-123.43052,2018-01-19,2018.0,1.0
1192230519,Delta--Brunswick Point,25.0,49.06564,-123.15415,2014-10-18,2014.0,10.0
579937967,Victoria--PKOLS (Mount Douglas Park),50.0,48.49255,-123.3453,2008-02-26,2008.0,2.0
2666755468,"CA-BC-8360 Old Kamloops Rd (50.3395,-119.2656)",35.0,50.339478,-119.26558,2019-04-01,2019.0,4.0
4382989451,Englishman River Estuary--Shelly St side,5.0,49.32629,-124.29538,2022-11-05,2022.0,11.0
4297739804,Englishman River Estuary--Shelly St side,8.0,49.32629,-124.29538,2022-08-08,2022.0,8.0
823542403,"Victoria--Selkirk Waterfront, Gorge Waterway",3.0,48.440186,-123.379395,2012-03-19,2012.0,3.0
3283866012,Nicola Lake (General),,50.159214,-120.54448,2002-05-04,2002.0,5.0
2056784087,"1764 Slateview Cres, ◉ Lake Country CA-BC (50.0152,-119.4370)",4.0,50.015163,-119.436966,2017-04-18,2017.0,4.0
3606912766,Kelowna--Sutherland Hills Park,15.0,49.87342,-119.43275,2021-01-07,2021.0,1.0
2071977077,Blackie Spit (Incl. Dunsmuir Farm & Nicomekl estuary),24.0,49.059,-122.879,2017-07-30,2017.0,7.0
2058209866,Victoria--Hastings Flats,5.0,48.47978,-123.42549,2017-04-24,2017.0,4.0
3692467511,Salmon Arm Bay (General),75.0,50.709747,-119.28043,2021-12-06,2021.0,12.0
4217303116,Colony Farm,1.0,49.23429,-122.79964,2022-05-30,2022.0,5.0
2143630817,Pipers Lagoon,6.0,49.223366,-123.94993,2018-03-01,2018.0,3.0
2104500957,CA-BC-Squamish-40195 Kalodon Rd - 49.7374x-123.1297,8.0,49.737442,-123.12971,2017-11-09,2017.0,11.0
580740540,Rocky Point Bird Observatory (restricted access),12.0,48.3198,-123.54715,2010-08-12,2010.0,8.0
2048109014,Great Blue Heron Nature Reserve,2.0,49.09632,-122.04541,2017-03-25,2017.0,3.0
3200032611,Cranbrook--Irrigation Fields South Pond,14.0,49.57221,-115.65754,2020-09-09,2020.0,9.0
3213109103,"Boundary Bay - 96th to 104th Sts., Delta",1.0,49.07305,-122.9485,2019-09-09,2019.0,9.0
1388226626,Kelowna--Munson Pond,200.0,49.864048,-119.46036,2015-09-20,2015.0,9.0
3269940361,"Vancouver, BC, CA",,49.25181,-123.12669,1973-03-30,1973.0,3.0
2783259815,Deer Lake Park,178.0,49.237682,-122.96786,2019-10-30,2019.0,10.0
2799126944,Boundary Bay Regional Park,440.0,49.01818,-123.04611,2019-09-20,2019.0,9.0
3524346346,Lumby - Whitevale Rd between Pemberton Rd & Hwy 6,2.0,50.22671,-118.97213,2021-03-29,2021.0,3.0
1348545997,Creston--south end of Kootenay Lake,15.0,49.257835,-116.66137,2015-02-05,2015.0,2.0
2798993866,Eaglet Lake (general location),95.0,54.098103,-122.30004,2019-09-20,2019.0,9.0
2781768984,Cowichan Bay,5.0,48.753075,-123.63868,2019-08-11,2019.0,8.0
582777840,Hastings St,200.0,48.479954,-123.42542,2011-05-06,2011.0,5.0
3693819634,"Semiahmoo Bay, White Rock CA-BC (49.0197,-122.8030)",14.0,49.019726,-122.80296,2021-11-16,2021.0,11.0
2171040306,Hector Road,2.0,48.490314,-123.43479,2018-05-21,2018.0,5.0
941241162,atlas square: 10DU69 - point No. 37,24.0,48.667877,-123.411804,2009-06-22,2009.0,6.0
3208913152,Osoyoos - Cottonwood Park,12.0,49.031887,-119.448135,2020-12-16,2020.0,12.0
2147726066,Kekuli Bay Provincial Park,4.0,50.181946,-119.34,2018-05-04,2018.0,5.0
4358542374,Pitt Meadows--Catbird Slough,10.0,49.33425,-122.6423,2022-06-25,2022.0,6.0
2191379296,Penticton--Okanagan Lake,1.0,49.50389,-119.59618,2018-07-04,2018.0,7.0
3668886670,Sardis Park,80.0,49.127857,-121.95331,2021-01-19,2021.0,1.0
823653358,Elgin Heritage Park,2.0,49.0351,-122.5046,2012-03-23,2012.0,3.0
3138359604,Royal Roads University,100.0,48.430397,-123.47345,2020-02-01,2020.0,2.0
2773183552,Martindale Flats,74.0,48.56149,-123.381996,2019-12-04,2019.0,12.0
2731861466,Cranbrook--Effluent fields road (all),8.0,49.55595,-115.63838,2019-04-01,2019.0,4.0
580743597,Nelson North Shore -- Home,240.0,49.520603,-117.28175,2010-05-26,2010.0,5.0
29821804,Shingle Spit,,49.51406,-124.71396,2000,2000.0,
4295612483,Vancouver--Jericho Park,8.0,49.27159,-123.194374,2022-11-11,2022.0,11.0
277878572,Pitt River,5.0,49.281357,-122.68913,2010-05-02,2010.0,5.0
1731828621,Victoria Golf Course (restricted access),6.0,48.41365,-123.29973,2016-04-28,2016.0,4.0
582802117,Stanley Park--Lost Lagoon,8.0,49.29563,-123.140305,2011-03-11,2011.0,3.0
4308252319,Pitt Meadows--Sturgeon Slough,16.0,49.29447,-122.65213,2022-05-20,2022.0,5.0
271149565,Salmon Arm Bay (General),250.0,50.709747,-119.28043,2009-08-14,2009.0,8.0
2796276138,Carmanah Point,10.0,48.611687,-124.75124,2005-05-29,2005.0,5.0
2152993286,"New Remo, Terrace, B.C.",15.0,54.499462,-128.7096,2018-04-29,2018.0,4.0
1407244842,Jericho Park,,49.27432,-123.19926,2015-03-26,2015.0,3.0
972232275,Serpentine Fen,25.0,49.085617,-122.82616,2010-03-03,2010.0,3.0
3148205560,"1885 Central Road, Hornby Island, British Columbia, CA (49.541, -124.69)",3.0,49.5409,-124.69013,2020-04-22,2020.0,4.0
2767725188,Kruger Mountain Road—lower,3.0,49.06657,-119.56067,2019-09-18,2019.0,9.0
2694340688,Cadboro Bay -- Beach,14.0,48.458614,-123.29476,2019-09-02,2019.0,9.0
278117912,Squamish River Estuary,200.0,49.70507,-123.17841,2010-04-24,2010.0,4.0
1720331521,Harrison Mills--Eagle Point Park (Chehalis Estuary),12.0,49.263245,-121.94272,2016-03-09,2016.0,3.0
2755159953,Stewart BC -- Clements Lake,4.0,56.047897,-129.9036,2019-04-26,2019.0,4.0
1344826616,"northbound Burnside Rd W NS Marigold ( No. 100903), 765 Burnside Road West",80.0,48.46237,-123.40434,2015-01-04,2015.0,1.0
3155266253,Wardner--Ha Ha Creek Rd,30.0,49.434647,-115.493454,2020-04-07,2020.0,4.0
4363195959,Laurie Guichon Memorial Grasslands Interpretive Site,28.0,50.06684,-120.66031,2022-06-17,2022.0,6.0
2060589533,Plot Pasture,2.0,49.875256,-115.726746,2017-06-06,2017.0,6.0
1728287391,Oak Bay--Cattle Point,5.0,48.43874,-123.29416,2016-04-16,2016.0,4.0
2044166685,Nanaimo--Neck Point Park,13.0,49.235535,-123.96475,2017-02-13,2017.0,2.0
4305486672,Esquimalt Lagoon,50.0,48.4294,-123.45837,2022-12-01,2022.0,12.0
3300649475,"2241 Sun Valley Way, Okanagan-Similkameen D, British Columbia, CA (49.321, -119.549)",325.0,49.32096,-119.5489,2020-12-27,2020.0,12.0
2070048095,Metchosin--Swanwick Rd.,6.0,48.36104,-123.542465,2017-05-11,2017.0,5.0
1757197648,Nanaimo--Buttertubs West Marsh,25.0,49.17138,-123.979126,2016-08-23,2016.0,8.0
3237760560,Vancouver--Trout Lake (John Hendry Park),2.0,49.25596,-123.062325,2020-05-09,2020.0,5.0
938875006,Stanley Park--seawall,2.0,49.3087,-123.13614,2013-02-13,2013.0,2.0
2174890376,Castlegar--Selkirk College Trails,28.0,49.30996,-117.64791,2018-05-17,2018.0,5.0
4197200413,Tsawwassen Dyke Trail,17.0,49.038177,-123.10658,2022-08-21,2022.0,8.0
821801333,Kelowna--Maude-Roxby Sanctuary,200.0,49.870506,-119.49701,2010-01-23,2010.0,1.0
1769438470,Iona Island (General),,49.22133,-123.2111,1992-01-27,1992.0,1.0
3599246741,Pitt Meadows--Catbird Slough,3.0,49.33425,-122.6423,2021-05-22,2021.0,5.0
2107974961,Englishman River Estuary--Shelly St side,5.0,49.32629,-124.29538,2017-10-24,2017.0,10.0
1164990454,Nanaimo--Buttertubs West Marsh,10.0,49.17138,-123.979126,2014-04-18,2014.0,4.0
3143595078,North Vancouver--Maplewood Conservation Area,160.0,49.305843,-123.00034,2020-02-15,2020.0,2.0
823165275,Reifel Bird Sanctuary,,49.1,-123.185,2012-08-13,2012.0,8.0
3297178241,home,130.0,49.493,-119.62893,2020-12-27,2020.0,12.0
1351833082,"Victoria--Selkirk Waterfront, Gorge Waterway",1.0,48.440186,-123.379395,2015-02-23,2015.0,2.0
821577465,Moberly Marsh Spring Survey Route,37.0,51.417904,-117.05987,2004-05-07,2004.0,5.0
3138030745,"2677–2751 Townline Rd, Abbotsford CA-BC 49.05167, -122.36032",13.0,49.05167,-122.36032,2020-03-08,2020.0,3.0
1400901327,Reifel Bird Sanctuary,150.0,49.1,-123.185,2015-09-27,2015.0,9.0
582782657,Reifel Bird Sanctuary,50.0,49.1,-123.185,2011-09-20,2011.0,9.0
2717848720,Whistler--Fitzsimmons Fan Park & Nicklaus North Golf Course,1.0,50.14495,-122.94628,2019-10-28,2019.0,10.0
278011480,Cowichan Bay,12.0,48.753075,-123.63868,2009-11-23,2009.0,11.0
4318477729,Oak Bay--Bowker Avenue,12.0,48.430496,-123.304535,2022-08-16,2022.0,8.0
277899974,Salmon Arm Bay (General),13.0,50.709747,-119.28043,2006-05-25,2006.0,5.0
3530248595,Peachland--Mouth of Trepanier Creek,5.0,49.78231,-119.71189,2021-04-26,2021.0,4.0
3271659176,"Baldonnel--255 Rd, Beatton River Valley",1.0,56.27392,-120.7058,2020-04-25,2020.0,4.0
278201923,West Vancouver--Horseshoe Bay,,49.3738,-123.271935,2010-06-14,2010.0,6.0
1734358304,"Peavine Creek, lakes and marshes",54.0,49.38549,-115.83133,2016-05-06,2016.0,5.0
3290000242,Reifel Bird Sanctuary,60.0,49.1,-123.185,2006-04-25,2006.0,4.0
2154821646,Cambridge St. yard,2.0,49.05352,-122.280266,2018-04-08,2018.0,4.0
2716705213,Private forest,10.0,50.070534,-119.384224,2019-10-13,2019.0,10.0
272183643,Choquette Hot Springs,2.0,56.832283,-131.75435,2010-05-14,2010.0,5.0
1727076803,Slocan--Walter Clough Bird Sanctuary,2.0,49.723686,-117.46988,2016-04-11,2016.0,4.0
2664640864,"Elgin Heritage Park, South Surrey",2.0,49.064587,-122.84783,2019-03-27,2019.0,3.0
3245352451,Nanaimo—3048 Quennell Rd,3.0,49.063362,-123.81616,2020-08-28,2020.0,8.0
4203411521,Penticton--Okanagan Lake,4.0,49.50389,-119.59618,2022-02-13,2022.0,2.0
1739679601,North Vancouver--Maplewood Conservation Area,3.0,49.305843,-123.00034,2016-05-17,2016.0,5.0
3687601548,Central Saanich--ȾIKEL (Maber Flats),283.0,48.572468,-123.43052,2021-11-12,2021.0,11.0
4241411376,Kamloops--McArthur Island Park,25.0,50.696064,-120.377625,2022-04-01,2022.0,4.0
1745663892,Deer Lake Park,90.0,49.237682,-122.96786,2016-06-15,2016.0,6.0
3621991872,Nanaimo - Cathers Lake,3.0,49.171436,-123.99151,2021-04-03,2021.0,4.0
3263476691,Sulphurous Lake,2.0,51.63429,-120.83974,2020-09-11,2020.0,9.0
2086381653,Englishman River Estuary--Plummer Rd side,5.0,49.328693,-124.286736,2017-08-13,2017.0,8.0
823649422,Squamish River Estuary,205.0,49.70507,-123.17841,2012-03-11,2012.0,3.0
4332618889,Esquimalt Lagoon,6.0,48.4294,-123.45837,2022-10-18,2022.0,10.0
3565080084,Deep creek BC,8.0,50.54721,-119.18277,2021-07-19,2021.0,7.0
3154807945,Kailay Farm 2,2.0,49.042297,-119.49138,2020-04-03,2020.0,4.0
3139442356,Vernon--Swan Lake grassland trail,4.0,50.295097,-119.27015,2020-03-11,2020.0,3.0
2665429716,Englishman River Estuary--Plummer Rd side,15.0,49.328693,-124.286736,2019-03-29,2019.0,3.0
972448321,Lillooet--Seton Lake,65.0,50.668766,-121.98866,2013-11-24,2013.0,11.0
2753574032,Mill Lake Park,20.0,49.04708,-122.30729,2019-01-13,2019.0,1.0
2198161244,Reifel Bird Sanctuary,352.0,49.1,-123.185,2018-08-30,2018.0,8.0
579588129,Kledo Creek Provincial Park,4.0,58.8304,-123.5165,2002-06-04,2002.0,6.0
2044032998,Cowichan Valley - Cherry Point Rd,76.0,48.729958,-123.598045,2017-03-05,2017.0,3.0
3597756175,Doole Road marsh,50.0,49.045166,-123.80339,2021-02-03,2021.0,2.0
3553784345,"Waldie Rd, Castlegar CA-BC 49.33072, -117.66162",2.0,49.330723,-117.66162,2021-03-26,2021.0,3.0
277935056,Osoyoos--Hwy. 3 bridge,300.0,49.02909,-119.460526,2010-01-02,2010.0,1.0
4380421236,Witty's Lagoon Regional Park,12.0,48.386383,-123.51718,2022-08-05,2022.0,8.0
943567087,Stanley Park,150.0,49.302967,-123.143265,1979-08-25,1979.0,8.0
210599422,Trinity Western University,3.0,49.140835,-122.59611,2008-08-01,2008.0,8.0
1747040216,Rose Hill,,50.61151,-120.276474,2016-06-25,2016.0,6.0
3539453881,Squamish Golf Course and Spawning Channels,13.0,49.72928,-123.12374,2021-11-06,2021.0,11.0
1718652641,Kelowna Ryder Drive,5.0,49.896816,-119.44495,2016-02-28,2016.0,2.0
2169501020,Bear Creek Provincial Park,20.0,49.926243,-119.512024,2018-07-07,2018.0,7.0
3653661256,"69B Neighbourhood Park, Surrey, BC",2.0,49.120636,-122.68744,2021-03-18,2021.0,3.0
936336810,Reifel Bird Sanctuary,16.0,49.1,-123.185,2013-01-19,2013.0,1.0
2694416063,Stanley Park--Lost Lagoon,12.0,49.29563,-123.140305,2019-09-13,2019.0,9.0
2651792389,Wasa--Culvert at N End,2.0,49.76,-115.73167,1999-04-24,1999.0,4.0
4262487167,Butchart Gardens,2.0,48.56478,-123.4694,2022-04-07,2022.0,4.0
1398386617,Kelowna--Capital News Centre/Thomson Brook Pond,10.0,49.83433,-119.482,2015-11-18,2015.0,11.0
1149572389,"2nd Ave, Chilliwack",10.0,49.16801,-121.94659,2014-01-04,2014.0,1.0
2664911172,Esquimalt Lagoon,12.0,48.4294,-123.45837,2019-04-04,2019.0,4.0
4242980521,Creston--Duck Lake (North end),76.0,49.253117,-116.64381,2022-02-26,2022.0,2.0
1759293513,"Quick's Bottom, Saanich",35.0,48.496643,-123.4032,2016-09-04,2016.0,9.0
1405855194,"Osoyoos Oxbows, Area C",8.0,49.08776,-119.52889,1986-03-16,1986.0,3.0
1724147793,Pitt Meadows--Thompson Road,4.0,49.27895,-122.62536,2016-03-28,2016.0,3.0
1191712913,"Swan Lake Nature Sanctuary, Victoria",,48.464558,-123.3738,2014-10-14,2014.0,10.0
2132243863,Cbk--Eff Irrig all,3.0,49.553455,-115.63476,2018-04-11,2018.0,4.0
1204391691,Lardeau,16.0,50.144344,-116.949036,2010-08-22,2010.0,8.0
4372743475,Stanley Park--Lost Lagoon,12.0,49.29563,-123.140305,2022-04-07,2022.0,4.0
198864696,Reifel Bird Sanctuary,,49.1,-123.185,2008-11-05,2008.0,11.0
2755435351,"Vernon Commonage--MacKay Reservoir, east side",23.0,50.19735,-119.36051,2019-06-07,2019.0,6.0
3652327459,East Delta (E of BC 17A and S of BC 99),12.0,49.072113,-122.98988,2021-08-31,2021.0,8.0
3514007749,Power to Be – Prospect Lake (restricted access),14.0,48.505234,-123.44307,2021-04-28,2021.0,4.0
3192322698,Tsawwassen Ferry Terminal Jetty,2.0,49.015713,-123.117065,2020-11-06,2020.0,11.0
1709748674,CA-British Columbia-Victoria-Beach Dr - 48.446x-123.293,10.0,48.446453,-123.29278,2016-01-11,2016.0,1.0
2218277928,Rathtrevor Beach Provincial Park,,49.32043,-124.2683,2018-10-02,2018.0,10.0
3618314084,Head of Oyster Bay,4.0,49.639164,-123.98709,2021-04-01,2021.0,4.0
2750603260,Chilliwack--Island 22 Park,14.0,49.193794,-121.97944,2010-09-13,2010.0,9.0
3258360986,Okanagan Falls - Sewage Treatment Plant Rd,22.0,49.32757,-119.566986,2020-08-07,2020.0,8.0
953039850,Reifel Bird Sanctuary,200.0,49.1,-123.185,2013-05-16,2013.0,5.0
1407106094,Iona Island Outer Pond,,49.219166,-123.21167,2006-08-02,2006.0,8.0
823969261,Metchosin Golf Course--Pears Rd.,14.0,48.389618,-123.53179,2012-03-24,2012.0,3.0
4341642075,Vancouver--Queen Elizabeth Park,,49.241943,-123.112206,2022-06-04,2022.0,6.0
942746062,Blink Bonnie Bird Observatory,1.0,49.359795,-123.28368,2013-03-11,2013.0,3.0
1351096522,"1887 Frances Street, Duncan, BC",9.0,48.784557,-123.66271,2015-02-18,2015.0,2.0
2105379861,Trinity Western University,4.0,49.140835,-122.59611,2018-01-14,2018.0,1.0
2694827268,Stanley Park,50.0,49.302967,-123.143265,2019-06-24,2019.0,6.0
2065239979,Saanich--Panama Flats,4.0,48.476334,-123.4029,2017-04-27,2017.0,4.0
272147516,BC-George Rieffel Bird Sanctuary,,49.090393,-123.16583,2000-05-07,2000.0,5.0
3584275735,Ferret Rd loop,6.0,49.822086,-118.154976,2021-12-13,2021.0,12.0
3220010384,Patricia Bay,7.0,48.658997,-123.44719,2020-01-13,2020.0,1.0
1388785419,CAN - BC - Bacchus,8.0,51.893856,-121.53176,2015-07-21,2015.0,7.0
4275613068,"2365 Gullhaven Rd, North Saanich CA-BC 48.68542, -123.40256",2.0,48.68542,-123.402565,2022-04-03,2022.0,4.0
3175972924,Eaglet Lake (general location),38.0,54.098103,-122.30004,2020-05-19,2020.0,5.0
2194038740,"Elizabeth Lake, Cranbrook",7.0,49.498783,-115.79311,2018-07-12,2018.0,7.0
580191796,North Vancouver--Maplewood Conservation Area,30.0,49.305843,-123.00034,2010-07-28,2010.0,7.0
4359063344,Victoria--McMicking Point,37.0,48.409428,-123.30334,2022-10-17,2022.0,10.0
3583284161,Charleson Park & Seawall,5.0,49.267555,-123.12497,2021-10-20,2021.0,10.0
2105545443,"Boundary Bay, Delta",37.0,49.065937,-122.96783,2017-10-13,2017.0,10.0
824156130,Serpentine Fen,23.0,49.085617,-122.82616,2012-10-30,2012.0,10.0
1770957743,Kokanee Creek Provincial Park,11.0,49.60353,-117.12513,2016-11-03,2016.0,11.0
1395091933,Invermere--Dorothy Lake,18.0,50.498768,-116.02468,2015-11-01,2015.0,11.0
4337734981,BC Maple Ridge area 209th,25.0,49.234173,-122.63982,2022-01-14,2022.0,1.0
4242881283,Pipers Lagoon,25.0,49.223366,-123.94993,2022-07-08,2022.0,7.0
2064611413,5037 Laguna Way,6.0,49.22981,-123.98922,2017-05-13,2017.0,5.0
4218932314,Squamish River Estuary,17.0,49.70507,-123.17841,2022-02-15,2022.0,2.0
2201895342,Oak Bay--Cattle Point,4.0,48.43874,-123.29416,2018-09-29,2018.0,9.0
4500539752,,,49.3121,-123.148194,2022-03-11T14:30,2022.0,3.0
3141271431,Private pond/feeders,4.0,49.144436,-123.810104,2020-03-25,2020.0,3.0
2035532727,Victoria--Blenkinsop Lake,100.0,48.483448,-123.3605,2017-01-29,2017.0,1.0
3179483430,Vancouver--Hadden & Vanier Parks,20.0,49.277885,-123.14747,2020-09-25,2020.0,9.0
1741492783,Wardner--Ha Ha Creek Rd,69.0,49.434647,-115.493454,2016-05-26,2016.0,5.0
4248439134,Prince George--Hudson's Bay Wetland,4.0,53.901302,-122.74475,2022-03-15,2022.0,3.0
4313235986,Esquimalt Lagoon,30.0,48.4294,-123.45837,2022-02-06,2022.0,2.0
4187574230,Halliday Heights,27.0,51.51998,-120.83042,2022-10-21,2022.0,10.0
3584886227,White Rock Pier,35.0,49.01969,-122.80589,2021-09-21,2021.0,9.0
1761722539,Vancouver--Kitsilano Beach,55.0,49.27385,-123.15387,2016-09-15,2016.0,9.0
3272935472,"Personal Yard (private, inactive)",32.0,48.554474,-123.433174,2020-08-12,2020.0,8.0
3587020987,Kelowna--Spiers Road,9.0,49.856243,-119.443344,2021-02-03,2021.0,2.0
3599543365,"Elgin Heritage Park, South Surrey",50.0,49.064587,-122.84783,2021-01-29,2021.0,1.0
3589542737,Squamish River Estuary -- East (of central channel),40.0,49.690567,-123.16406,2021-04-27,2021.0,4.0
2694339419,Savory Rest Area,2.0,54.094265,-125.16768,2019-04-26,2019.0,4.0
29821975,Crescent Slough (CS),,49.71481,-123.16015,2001,2001.0,
1765549410,Abbotsford--Fishtrap Creek Park,43.0,49.056416,-122.34872,2016-10-05,2016.0,10.0
2093512726,Sardis Park,3.0,49.127857,-121.95331,2017-09-20,2017.0,9.0
2163344508,Metchosin--Devonian Regional Park,2.0,48.365486,-123.5398,2018-05-04,2018.0,5.0
1771729981,West Vancouver--Ambleside Park,,49.323944,-123.14484,1993-01-30,1993.0,1.0
2779276548,Pitt Meadows--Thompson Road,600.0,49.27895,-122.62536,2019-09-23,2019.0,9.0
3912336828,,,48.452767,-123.420506,2022-09-18T12:11:34,2022.0,9.0
4291159917,Vancouver--Jericho Park,12.0,49.27159,-123.194374,2022-10-31,2022.0,10.0
2780174349,Hwy 15 - Hwy 10 to 40th avenue,34.0,49.087902,-122.73234,2019-11-17,2019.0,11.0
4313490399,Royal Roads University,39.0,48.430397,-123.47345,2022-02-18,2022.0,2.0
4253422488,Hwy 3A (3 mile) Yard,5.0,49.54121,-117.25744,2022-04-01,2022.0,4.0
2068000038,230 Goward Rd,4.0,48.518906,-123.43045,2017-05-06,2017.0,5.0
4268446880,Englishman River Estuary--Shelly St side,34.0,49.32629,-124.29538,2022-11-15,2022.0,11.0
3158375343,Surrey Lake Park,5.0,49.139214,-122.800285,2020-05-11,2020.0,5.0
2169607195,"14–18 Chilcotin-Bella Coola Highway 20, Williams Lake CA-BC (52.1254,-122.1298)",7.0,52.125374,-122.12977,2018-05-18,2018.0,5.0
2072461183,Stanley Park--Lost Lagoon,35.0,49.29563,-123.140305,2017-06-02,2017.0,6.0
1349051480,"Swan Lake Nature Sanctuary, Victoria",65.0,48.464558,-123.3738,2015-01-27,2015.0,1.0
4337291924,Englishman River Estuary--Plummer Rd side,9.0,49.328693,-124.286736,2022-04-27,2022.0,4.0
1775331364,Robson--Evin Road,4.0,49.340427,-117.71743,2016-11-24,2016.0,11.0
1749642293,Squamish River Estuary,55.0,49.70507,-123.17841,2016-06-28,2016.0,6.0
3205563019,Muir Creek Mouth,20.0,48.379948,-123.86611,2020-11-01,2020.0,11.0
2226188541,Squamish Golf Course and Spawning Channels,6.0,49.72928,-123.12374,2018-12-15,2018.0,12.0
2719139612,Rithet's Bog,,48.4915,-123.37905,2009-08-15,2009.0,8.0
1358722021,Victoria Harbour,,48.42544,-123.3884,2015-04-09,2015.0,4.0
1781003864,Alberni Valley--Kitsuksis Dyke & Somass Flats,1.0,49.26238,-124.81635,2016-12-26,2016.0,12.0
272338814,Island View Beach,2.0,48.5751,-123.36811,2010-02-14,2010.0,2.0
967967031,Bowker/Queen's Park,6.0,48.42812,-123.305824,2013-10-08,2013.0,10.0
3149706168,Salmon Arm Bay (General),18.0,50.709747,-119.28043,2020-04-18,2020.0,4.0
3137371126,Salmon Arm Bay (General),30.0,50.709747,-119.28043,2020-03-07,2020.0,3.0
2743321343,Castlegar--Waldie Island,10.0,49.33262,-117.656624,2019-03-29,2019.0,3.0
2755820869,"6921–6999 Willow Way, Saanichton CA-BC (48.5725,-123.4306)",14.0,48.572544,-123.43064,2019-05-13,2019.0,5.0
198880869,Belcarra--Bedwell Bay,4.0,49.32003,-122.91341,2008-03-15,2008.0,3.0
4385177456,Victoria--Munn Road/Pike Lake Power Lines,2.0,48.491123,-123.45508,2022-05-01,2022.0,5.0
3269258663,1st Street Sointula,16.0,50.623768,-127.016655,2020-10-02,2020.0,10.0
129988052,Oliver - Lions Park and Riverside Path,,49.19567,-119.55226,2003-04-27,2003.0,4.0
2165986310,108 Mile Lake,1.0,51.7497,-121.34775,2018-04-28,2018.0,4.0
2673957871,French Creek mouth,2.0,49.3485,-124.360085,2019-03-24,2019.0,3.0
2110628278,Duncan--Herd Rd Fields,60.0,48.82147,-123.63103,2018-02-03,2018.0,2.0
4273660543,Cadboro Bay Beach East,26.0,48.459423,-123.28999,2022-12-21,2022.0,12.0
4316988576,100 Mile House Centennial Park,3.0,51.644375,-121.290115,2022-03-15,2022.0,3.0
2136128136,Serpentine Fen,2.0,49.085617,-122.82616,2018-04-19,2018.0,4.0
1188107490,Salmon Arm Bay (General),325.0,50.709747,-119.28043,2014-09-19,2014.0,9.0
2183015740,Denman Island,12.0,49.545,-124.797,2018-09-02,2018.0,9.0
2109810640,Lillooet--Powerhouse,17.0,50.675667,-121.92371,2017-12-06,2017.0,12.0
580744895,Alaksen National Wildlife Area,26.0,49.10199,-123.17275,2010-10-27,2010.0,10.0
2038125599,Hastings Park Sanctuary,4.0,49.282673,-123.041794,2017-03-19,2017.0,3.0
3171386120,Reifel Bird Sanctuary,,49.1,-123.185,2005-03-15,2005.0,3.0
950033171,"MAPLE BAY, BC",1.0,48.813873,-123.61267,2013-04-28,2013.0,4.0
4246271939,Saanich--Panama Flats,,48.476334,-123.4029,2022-04-16,2022.0,4.0
3689068915,Kelowna--Munson Pond,,49.864048,-119.46036,2021-09-03,2021.0,9.0
1763990972,Abbotsford--Fishtrap Creek Park,30.0,49.056416,-122.34872,2016-09-28,2016.0,9.0
2675670543,Kelowna--Robert Lake,1.0,49.93562,-119.408905,2019-05-25,2019.0,5.0
1392019899,Powell River--Myrtle Rock,2.0,49.793457,-124.47407,2007-04-06,2007.0,4.0
4236105885,Cowichan Bay,19.0,48.753075,-123.63868,2022-05-21,2022.0,5.0
4394107021,"173–185 Esplanade Ave, Harrison Hot Springs CA-BC 49.30371, -121.78566",30.0,49.30371,-121.78566,2022-05-29,2022.0,5.0
1361797925,North Vancouver--Maplewood Conservation Area,1.0,49.305843,-123.00034,2015-04-23,2015.0,4.0
1195012454,Castlegar--Selkirk College Trails,9.0,49.30996,-117.64791,2014-10-08,2014.0,10.0
1727623892,Englishman River Estuary--Shelly St side,,49.32629,-124.29538,2016-04-11,2016.0,4.0
2208689793,Sardis Park,3.0,49.127857,-121.95331,2018-10-04,2018.0,10.0
3685538003,Witty's Lagoon Regional Park,,48.386383,-123.51718,2021-09-23,2021.0,9.0
3292371571,Rocky Point Bird Observatory (restricted access),15.0,48.3198,-123.54715,2020-08-28,2020.0,8.0
3561702828,Fernie--Maiden Lake,3.0,49.51766,-115.05635,2021-08-01,2021.0,8.0
3170813372,Esquimalt Lagoon,10.0,48.4294,-123.45837,2020-07-31,2020.0,7.0
2052920825,Vanderhoof--Riverside Park,8.0,54.02504,-124.013626,2017-05-13,2017.0,5.0
1345796786,Cambridge St. yard,3.0,49.05352,-122.280266,2015-01-13,2015.0,1.0
2673503322,Kelowna--Maude-Roxby Sanctuary,2.0,49.870506,-119.49701,2019-05-14,2019.0,5.0
3213306233,Esquimalt Lagoon,30.0,48.4294,-123.45837,2020-09-11,2020.0,9.0
1155777074,Esquimalt Lagoon,10.0,48.4294,-123.45837,2014-02-12,2014.0,2.0
1728084508,Eaglet Lake (general location),70.0,54.098103,-122.30004,2016-04-16,2016.0,4.0
3550192400,"Vernon--Swan Lake, north end",23.0,50.338055,-119.24778,2021-11-15,2021.0,11.0
1784397765,Kelowna--Alki Lake landfill,5.0,49.955833,-119.41722,2001-05-09,2001.0,5.0
2200945667,Nakusp - mouth of creek and adjacent lakeshore,30.0,50.244366,-117.81583,2018-11-03,2018.0,11.0
3659467811,Colony Farm,48.0,49.23429,-122.79964,2021-08-15,2021.0,8.0
3621793306,Kelowna--Maude-Roxby Sanctuary,2.0,49.870506,-119.49701,2021-04-06,2021.0,4.0
3663489260,Victoria--Blenkinsop Lake,2.0,48.483448,-123.3605,2021-11-18,2021.0,11.0
4237967244,Parksville Community Park,18.0,49.32567,-124.3088,2022-03-12,2022.0,3.0
2662538292,Burnaby Lake--Piper Spit,75.0,49.242077,-122.93545,2019-03-20,2019.0,3.0
1718716231,Victoria--Blenkinsop Lake,30.0,48.483448,-123.3605,2016-02-28,2016.0,2.0
2088398497,Somenos Marsh--Forest Museum Pond,,48.798714,-123.71519,2017-10-20,2017.0,10.0
2737411662,"Beckwith Park, Saanich",12.0,48.480675,-123.36995,2019-02-12,2019.0,2.0
3159560192,Hope--Sewage Lagoon,2.0,49.368973,-121.46716,2020-04-02,2020.0,4.0
2079357904,Delta--Brunswick Point,20.0,49.06564,-123.15415,2017-06-07,2017.0,6.0
2669810020,Port Moody--Bert Flinn Park,1.0,49.302444,-122.848114,2019-04-20,2019.0,4.0
951030048,Vernon--Cool's Pond,7.0,50.2984,-119.23196,2013-05-05,2013.0,5.0
3663455512,Boulton Marsh,400.0,49.149944,-123.73269,2021-01-09,2021.0,1.0
2731530624,Nelson--Old Taghum Bridge/Fisherman Rd,2.0,49.485622,-117.3873,2019-04-11,2019.0,4.0
4282167911,Stanley Park--seawall,32.0,49.3087,-123.13614,2022-08-27,2022.0,8.0
3666841719,Castlegar--Waldie Island,17.0,49.33262,-117.656624,2021-02-28,2021.0,2.0
1346565373,Martindale Flats,,48.56149,-123.381996,2015-01-19,2015.0,1.0
1346481407,Kelowna--Rotary Beach,100.0,49.849045,-119.487,2015-01-18,2015.0,1.0
2758451266,Nanaimo River Estuary,6.0,49.1346,-123.8947,2019-03-29,2019.0,3.0
4345544989,Wasa--Wolf Creek Conservation Area,2.0,49.84497,-115.66465,2022-06-06,2022.0,6.0
3146715594,Stanley Park,24.0,49.302967,-123.143265,2020-04-19,2020.0,4.0
2180959482,Stanley Park,10.0,49.302967,-123.143265,2018-08-23,2018.0,8.0
3526119730,South Pender Island--Brooks Point Park,1.0,48.73464,-123.1878,2021-04-25,2021.0,4.0
1381596691,Nanaimo--Buttertubs West Marsh,3.0,49.17138,-123.979126,2015-08-11,2015.0,8.0
3657709340,Stanley Park,,49.302967,-123.143265,2014-09-06,2014.0,9.0
2101824160,"1887 Frances Street, Duncan, BC",52.0,48.784557,-123.66271,2017-10-28,2017.0,10.0
3517274872,"Sunshine Bay, Kootenay Lake",20.0,49.60971,-117.00706,2021-05-13,2021.0,5.0
167176186,Kalamoir Park,2.0,49.849,-119.54327,2007-02-25,2007.0,2.0
1381509299,Shelley sludge lagoons,14.0,53.94982,-122.62768,2015-07-05,2015.0,7.0
4354557727,Seeley Lake,4.0,55.2,-127.683334,2006-04-07,2006.0,4.0
4507701025,,,49.309714,-123.082824,2023-09-26T08:50,2023.0,9.0
581497199,Somenos Lake--Drinkwater Rd,20.0,48.803703,-123.70906,2011-01-07,2011.0,1.0
2799112328,"Personal Yard (private, inactive)",10.0,48.554474,-123.433174,2019-09-11,2019.0,9.0
3239468296,Tunkwa Lake Provincial Park,4.0,50.611214,-120.84749,2020-06-04,2020.0,6.0
1723244298,Fulford Harbour--Fulford Creek mouth,2.0,48.77196,-123.46182,2016-03-25,2016.0,3.0
4336570132,Cowichan Bay--Lochmanetz Rd (Dinsdale Farm) Dike,2.0,48.750465,-123.643974,2022-02-10,2022.0,2.0
3206223697,Huband Road,6.0,49.725975,-124.992386,2020-11-07,2020.0,11.0
3212793502,Stanley Park--Lost Lagoon,7.0,49.29563,-123.140305,2020-02-19,2020.0,2.0
2101412836,Castlegar--Selkirk College Trails,28.0,49.30996,-117.64791,2017-10-30,2017.0,10.0
967563181,RCC Golf Course,1.0,49.12802,-123.12362,2013-10-06,2013.0,10.0
4268515887,North Vancouver--Maplewood Conservation Area,136.0,49.305843,-123.00034,2022-08-04,2022.0,8.0
3552576103,Englishman River Estuary--Shelly St side,6.0,49.32629,-124.29538,2021-04-12,2021.0,4.0
4368238695,Saanich--Panama Flats,40.0,48.476334,-123.4029,2022-12-01,2022.0,12.0
2122864493,Terra Nova Natural Area,29.0,49.168797,-123.195145,2004-10-16,2004.0,10.0
2229816206,Rocky Point Bird Observatory (restricted access),27.0,48.3198,-123.54715,2016-09-05,2016.0,9.0
2081959722,Mayne Island--Miners Bay,58.0,48.851894,-123.30018,2017-07-18,2017.0,7.0
2031567642,"Viaduct Flats, Saanich",30.0,48.498806,-123.41822,2017-01-01,2017.0,1.0
2741265257,"Rebecca Spit Road, Heriot Bay, British Columbia, CA (50.094, -125.184)",5.0,50.09408,-125.18373,2019-03-10,2019.0,3.0
4204965882,Kelowna--mouth of Mission Creek,21.0,49.842785,-119.493,2022-10-13,2022.0,10.0
3252053542,Nanaimo River Estuary--Holden Creek,22.0,49.130066,-123.86612,2020-04-28,2020.0,4.0
2717939028,Courtenay Estuary (General),300.0,49.679592,-124.97361,2019-09-23,2019.0,9.0
3208404696,Victoria--Cedar Hill Golf Course,10.0,48.45391,-123.34548,2020-12-26,2020.0,12.0
2791703131,Vancouver--McCleery Golf Course,3.0,49.218468,-123.16704,2019-07-24,2019.0,7.0
4376142173,Stanley Park--Lost Lagoon,45.0,49.29563,-123.140305,2022-07-06,2022.0,7.0
1174881728,Jericho Park,48.0,49.271725,-123.19622,2014-06-01,2014.0,6.0
580751015,White Rock Pier,24.0,49.01969,-122.80589,2010-11-21,2010.0,11.0
3205265676,"Boundary Bay -- 64th Street, Delta",1.0,49.04973,-123.04631,2020-10-11,2020.0,10.0
3535854142,Sulphurous Lake,2.0,51.63429,-120.83974,2021-04-18,2021.0,4.0
167216722,Deer Lake Park,28.0,49.237682,-122.96786,1996-03-30,1996.0,3.0
3588180872,Oak Bay--Turkey Head/Queen's Park,2.0,48.424488,-123.30104,2021-04-03,2021.0,4.0
1388111502,Oak Bay--Turkey Head/Queen's Park,10.0,48.424488,-123.30104,2015-09-19,2015.0,9.0
580728245,Harrison Hot Springs--Beach & town,12.0,49.303905,-121.7848,2010-08-10,2010.0,8.0
3642414403,Steveston--Garry Point Park,3.0,49.1251,-123.19875,2021-08-22,2021.0,8.0
579813777,Nelson--waterfront,,49.498905,-117.291245,2007-09-05,2007.0,9.0
965369421,Trinity Western University,4.0,49.140835,-122.59611,2013-02-04,2013.0,2.0
3536490704,Columbia Beach,13.0,49.35418,-124.37037,2021-08-03,2021.0,8.0
3258035813,Iona Island Inner Ponds (NOW CLOSED TO PUBLIC),12.0,49.218887,-123.20556,2020-05-24,2020.0,5.0
2109565130,"Camp Imadene - Mesachie Lake, British Columbia, CA (48.812, -124.116)",27.0,48.81221,-124.11648,2017-10-30,2017.0,10.0
1396770798,Robson--Evin Road,12.0,49.340427,-117.71743,2015-11-12,2015.0,11.0
2793617268,Surrey Lake Park,45.0,49.139214,-122.800285,2019-12-17,2019.0,12.0
4359293899,Greenburn Lake and Bluffs,8.0,48.744656,-123.220505,2022-03-04,2022.0,3.0
4252308814,Englishman River Estuary--Plummer Rd side,1.0,49.328693,-124.286736,2022-10-25,2022.0,10.0
3515889414,Mary Lake Nature Sanctuary,2.0,48.500137,-123.51779,2021-04-11,2021.0,4.0
2206635305,Lake Windermere--Ruault Road,360.0,50.436577,-115.97733,2018-09-29,2018.0,9.0
3556310647,"Kootenay Lake--north end, Hwy. 31",29.0,50.171513,-116.95749,2021-05-01,2021.0,5.0
2771200206,Slocan Pool--Gold Island,10.0,49.44287,-117.52288,2019-05-15,2019.0,5.0
1736609102,Cranbrook--Jimsmith Lake and Area,3.0,49.48452,-115.850655,2016-05-12,2016.0,5.0
3244089455,Manitou Park Naramata,,49.5927,-119.598,2020-03-04,2020.0,3.0
950273501,Franks Field,50.0,54.523647,-128.63982,2013-05-02,2013.0,5.0
1766303221,"Boundary Bay - 64th-72nd Sts., Delta",5.0,49.050194,-123.037315,2016-10-10,2016.0,10.0
3550168654,Kelowna--Robert Lake,10.0,49.93562,-119.408905,2021-03-30,2021.0,3.0
3553874494,Elk/Beaver Lake Regional Park,5.0,48.519787,-123.38969,2021-03-25,2021.0,3.0
3594429382,Antler Beach,2.0,49.740967,-119.76162,2021-03-02,2021.0,3.0
2780404592,North Van--Waterfront Park,20.0,49.31182,-123.085884,2019-10-10,2019.0,10.0
3509889790,Kelowna--Spiers Road,90.0,49.856243,-119.443344,2021-01-31,2021.0,1.0
2178492242,Duck Lake,22.0,49.101368,-116.52681,2013-05-23,2013.0,5.0
3618920867,Creston--Duck Lake,140.0,49.222702,-116.62863,2021-12-05,2021.0,12.0
2221843391,Reifel Bird Sanctuary,110.0,49.1,-123.185,2018-10-22,2018.0,10.0
2218433696,"Saanich--Tod Creek Flats (""Red Barn Flats"")",250.0,48.53417,-123.44096,2018-11-20,2018.0,11.0
2717131472,"Scout Island, Williams Lake",2.0,52.11975,-122.11961,2000-01-30,2000.0,1.0
3177295472,Wilmer National Wildlife Area,6.0,50.549816,-116.0683,2020-06-03,2020.0,6.0
1391555113,Lake Country--Kopje Regional Park,12.0,50.105278,-119.46083,2015-09-12,2015.0,9.0
1196951061,Okanagan Falls (general),10.0,49.34473,-119.57163,1992-04-12,1992.0,4.0
4329504873,North Vancouver--Maplewood Conservation Area,10.0,49.305843,-123.00034,2022-02-04,2022.0,2.0
2729881514,Penticton -- KVR Trail - Pickering St to Vancouver Ave,2.0,49.499664,-119.584946,2019-03-23,2019.0,3.0
1731153641,Stanley Park--Lost Lagoon,19.0,49.29563,-123.140305,2016-04-26,2016.0,4.0
823880364,Creston--Duck Lake,10.0,49.222702,-116.62863,2012-05-06,2012.0,5.0
1175703122,Wilson Creek estuary,1.0,49.438385,-123.71275,2014-06-05,2014.0,6.0
3190488449,Reifel Bird Sanctuary,50.0,49.1,-123.185,1986-09-21,1986.0,9.0
4304494152,"Beaver Road, Victoria CA-BC",53.0,48.50179,-123.413246,2022-01-06,2022.0,1.0
2724304324,Harrison Hot Springs--Beach & town,,49.303905,-121.7848,1995-08-13,1995.0,8.0
4397442104,Outerbridge Park,48.0,48.50259,-123.35766,2022-08-14,2022.0,8.0
3580117069,Rocky Point Bird Observatory (restricted access),8.0,48.3198,-123.54715,2021-08-25,2021.0,8.0
3167162002,Old Coach Trail,18.0,50.577286,-116.046524,2020-05-24,2020.0,5.0
2739194186,Victoria--Cedar Hill Golf Course,70.0,48.45391,-123.34548,2019-01-25,2019.0,1.0
3589119827,"Swan Lake Nature Sanctuary, Victoria",12.0,48.464558,-123.3738,2021-02-23,2021.0,2.0
1390002148,Puckle and Lamont Roads,43.0,48.577755,-123.389725,2015-09-25,2015.0,9.0
4337040109,Saanich--Panama Flats,4.0,48.476334,-123.4029,2022-05-14,2022.0,5.0
1746501341,Deer Lake Park,98.0,49.237682,-122.96786,2016-06-21,2016.0,6.0
4344154300,9917 Spalding Rd,1.0,48.74752,-123.19878,2022-10-21,2022.0,10.0
4371383689,C's Appartement,10.0,48.4366,-123.394066,2022-08-28,2022.0,8.0
4375107406,Lochside Dr Pig Sty,,48.55814,-123.387024,2022-03-29,2022.0,3.0
3635009719,Vancouver--Hadden & Vanier Parks,110.0,49.277885,-123.14747,2021-05-18,2021.0,5.0
4231702290,Somenos Marsh--York Rd/Golf Driving Range,115.0,48.788433,-123.698944,2022-12-31,2022.0,12.0
3537865947,Port Alberni--Somass Estuary & sewage lagoons,105.0,49.25543,-124.837234,2021-09-05,2021.0,9.0
1789946755,BC Atlas Square: 10DV43,,49.0238,-123.80694,2010-06-03,2010.0,6.0
3259759853,Victoria--McMicking Point,19.0,48.409428,-123.30334,2020-10-07,2020.0,10.0
2680111104,Rotary RV Park,4.0,56.27626,-120.955696,2019-05-19,2019.0,5.0
1364544975,Fountain Valley--Chilhil Lake,6.0,50.64946,-121.80061,2015-05-02,2015.0,5.0
1744631117,"Mill Lake, Abbotsford",103.0,49.044846,-122.31027,2016-06-10,2016.0,6.0
167184294,Vancouver--UBC south campus Farm,8.0,49.251,-123.23742,2007-03-18,2007.0,3.0
2141954826,Martindale Flats,1000.0,48.56149,-123.381996,2018-02-24,2018.0,2.0
2182790138,Wilson Creek estuary,5.0,49.438385,-123.71275,2018-07-14,2018.0,7.0
3182039736,Riske Creek--Separating Lake,8.0,51.97116,-122.50047,2020-09-08,2020.0,9.0
2094820761,Nanaimo--Buttertubs West Marsh,27.0,49.17138,-123.979126,2017-09-28,2017.0,9.0
2698246772,5924 242 road,53.0,56.246914,-120.706055,2019-09-20,2019.0,9.0
3157150131,Salmon Arm Bay (General),12.0,50.709747,-119.28043,2020-05-17,2020.0,5.0
3638432532,Sproat Lake--Taylor River delta,2.0,49.288895,-125.211586,2021-05-15,2021.0,5.0
4180808970,Cheam Lake Wetlands Regional Park,2.0,49.195557,-121.7525,2022-07-14,2022.0,7.0
3516537373,Burnaby--Fraser Foreshore Park,1.0,49.191776,-122.99883,2021-02-25,2021.0,2.0
2134294744,Oliver - Lions Park and Riverside Path,,49.19567,-119.55226,2017-06-03,2017.0,6.0
1726672642,Pipers Lagoon,1.0,49.223366,-123.94993,2016-04-09,2016.0,4.0
2785812255,Abbotsford--Willband Creek Park,95.0,49.07065,-122.28117,2019-10-07,2019.0,10.0
966506593,Vancouver--Beach and Cardero,2.0,49.282673,-123.14224,2013-09-24,2013.0,9.0
3591744918,Albert Head Lagoon Regional Park,3.0,48.395275,-123.48901,2021-03-31,2021.0,3.0
3610252387,Mc Niel Bay,28.0,48.412876,-123.31322,2021-12-29,2021.0,12.0
4327306517,Kelowna--Capital News Centre/Thomson Brook Pond,8.0,49.83433,-119.482,2022-11-14,2022.0,11.0
2756106313,Fairmont Hot Springs,4.0,50.325306,-115.86042,2019-05-08,2019.0,5.0
2660281129,Birkenhead River along Hwy 99,6.0,50.309517,-122.652054,2019-03-21,2019.0,3.0
582794578,Alaksen National Wildlife Area,75.0,49.10199,-123.17275,2011-02-21,2011.0,2.0
3653399747,Esquimalt Lagoon,125.0,48.4294,-123.45837,2021-08-20,2021.0,8.0
1732827243,"Resthaven Park, Sidney",21.0,48.666374,-123.4104,2016-04-30,2016.0,4.0
2222046902,Campbell River--Tyee Spit,60.0,50.04981,-125.25642,2018-10-24,2018.0,10.0
3187780046,3415 Kelsey Road,8.0,49.533787,-124.81653,2020-11-08,2020.0,11.0
2596291032,,,48.46563,-123.374328,2020-03-31T18:57:40,2020.0,3.0
2683653614,Big Creek Area,2.0,51.72264,-123.042076,2019-06-19,2019.0,6.0
3663930242,Nanaimo - Cathers Lake,31.0,49.171436,-123.99151,2021-10-23,2021.0,10.0
1714268851,North Vancouver--Maplewood Conservation Area,10.0,49.305843,-123.00034,2016-02-08,2016.0,2.0
2733196763,Hilliers Farm,6.0,49.31781,-124.48364,2019-05-04,2019.0,5.0
2103229335,Englishman River Estuary (general),1.0,49.330807,-124.2949,2017-10-05,2017.0,10.0
1406664655,Seabird Island powerline,52.0,49.30118,-121.6868,2003-05-26,2003.0,5.0
3237051613,James Bay --Simcoe and Medana St area,4.0,48.41503,-123.373215,2020-05-09,2020.0,5.0
3178706306,Vancouver--Queen Elizabeth Park,15.0,49.241943,-123.112206,2020-08-27,2020.0,8.0
3607648826,Colony Farm,40.0,49.23429,-122.79964,2021-04-24,2021.0,4.0
277460003,"Vernon Commonage--MacKay Reservoir, east side",3.0,50.19735,-119.36051,2010-04-05,2010.0,4.0
2143640151,Kelowna--Munson Pond,75.0,49.864048,-119.46036,2018-04-08,2018.0,4.0
2149235199,Westside - Old Ferry Dock,15.0,49.89,-119.53139,2006-04-28,2006.0,4.0
3179302905,"Eagle Lake, Chilcotin",5.0,51.889843,-124.44042,2020-09-01,2020.0,9.0
2045994988,Iona Island (General),5.0,49.22133,-123.2111,2017-04-21,2017.0,4.0
3191300290,Parksville--Morningstar Golf Course ponds,32.0,49.335804,-124.36592,2020-12-06,2020.0,12.0
1195353606,Brydon Lagoon--Langley,35.0,49.09851,-122.67781,2014-11-11,2014.0,11.0
582782393,"1887 Frances Street, Duncan, BC",1.0,48.784557,-123.66271,2011-11-25,2011.0,11.0
2580099897,,,49.265695,-122.735481,2020-03-18T09:12,2020.0,3.0
1151571071,Oak Bay--Cattle Point,4.0,48.43874,-123.29416,2014-01-25,2014.0,1.0
1784769064,Oliver--Deadman Lake,2.0,49.091946,-119.55361,1988-05-06,1988.0,5.0
2092727902,White Rock--Little Campbell River Estuary,74.0,49.01284,-122.777885,2017-09-15,2017.0,9.0
167174569,Trinity Western University,8.0,49.140835,-122.59611,2005-05-27,2005.0,5.0
3230547809,Otter Lake Rd. - near N end,4.0,50.43843,-119.22215,2020-05-03,2020.0,5.0
2049043360,Cbk--Eff Irrig middle pond,4.0,49.546486,-115.62548,2017-05-02,2017.0,5.0
2051674891,Outerbridge Park,2.0,48.50259,-123.35766,2017-03-12,2017.0,3.0
582787277,North Vancouver--Maplewood Conservation Area,200.0,49.305843,-123.00034,2011-07-06,2011.0,7.0
2702669851,Coquitlam—DeBoville Slough,10.0,49.28285,-122.72233,2019-10-13,2019.0,10.0
1356446294,Vanderhoof--Larson Road,150.0,54.081196,-124.07079,2015-03-28,2015.0,3.0
2057219831,Anarchist Mountain--Wagonwheel Rd,10.0,49.02389,-119.24554,2017-05-26,2017.0,5.0
3165884880,Nelson--Old Taghum Bridge/Fisherman Rd,2.0,49.485622,-117.3873,2020-04-24,2020.0,4.0
2671724115,Rose Valley Regional Park,10.0,49.89167,-119.56834,2019-05-01,2019.0,5.0
2208948394,Central Saanich--ȾIKEL (Maber Flats),276.0,48.572468,-123.43052,2018-11-30,2018.0,11.0
2111464820,Vancouver--McCleery Golf Course,50.0,49.218468,-123.16704,2017-12-14,2017.0,12.0
936781262,Bedrock,8.0,48.50018,-123.45244,2013-01-24,2013.0,1.0
2183936893,Colony Farm,6.0,49.23429,-122.79964,1993-06-12,1993.0,6.0
3549114102,North Vancouver--Maplewood Conservation Area,7.0,49.305843,-123.00034,2021-04-02,2021.0,4.0
1729052129,Pender Island - Medicine Beach,1.0,48.76117,-123.26765,2016-04-19,2016.0,4.0
2113131013,Campbell River--Tyee Spit,19.0,50.04981,-125.25642,2018-02-12,2018.0,2.0
4324777320,Blackie Spit (Incl. Dunsmuir Farm & Nicomekl estuary),50.0,49.059,-122.879,2022-06-10,2022.0,6.0
2229895076,Rocky Point Bird Observatory (restricted access),73.0,48.3198,-123.54715,2016-08-06,2016.0,8.0
2730518094,Kelowna--Robert Lake,11.0,49.93562,-119.408905,2019-03-12,2019.0,3.0
1781940976,Saanichton Spit (TIXEN) (Access restricted during COVID),107.0,48.58966,-123.372246,2016-12-30,2016.0,12.0
3624169928,Victoria--King's Pond,2.0,48.461056,-123.346085,2021-08-22,2021.0,8.0
965491913,Vancouver--English Bay Beach,,49.28576,-123.1426,2013-09-11,2013.0,9.0
3231549768,Esquimalt Lagoon,,48.4294,-123.45837,2020-05-18,2020.0,5.0
2131172407,Vancouver Waterfront Heliport,2.0,49.2869,-123.11109,2018-02-17,2018.0,2.0
129983224,Campbell Valley Regional Park,1.0,49.021385,-122.660545,1984-04-28,1984.0,4.0
1196265154,Harrison Bay,10.0,49.24805,-121.94788,2014-11-14,2014.0,11.0
3536665770,Fry Lake Orchard Meadows campsite,14.0,50.0297,-125.57959,2021-07-17,2021.0,7.0
3159643825,"Waite Creek Wetland, Mission Road",8.0,49.69639,-115.79127,2020-05-11,2020.0,5.0
3694167663,Saanich--Panama Flats,1.0,48.476334,-123.4029,2021-11-17,2021.0,11.0
3171952727,North Vancouver--Maplewood Conservation Area,38.0,49.305843,-123.00034,2020-05-27,2020.0,5.0
1780893285,Vaseux Lake Bird Observatory,2.0,49.30998,-119.54459,2016-08-13,2016.0,8.0
3531942321,"Spirit Trail, North Vancouver",100.0,49.311928,-123.08888,2021-01-31,2021.0,1.0
2051037228,Wardner,16.0,49.41844,-115.42249,2017-03-31,2017.0,3.0
1400131831,Castlegar--Waldie Island,7.0,49.33262,-117.656624,2015-12-03,2015.0,12.0
2651644328,Adra,1000.0,49.61692,-119.56085,1985-04-16,1985.0,4.0
1358618135,Whistler--Valley Trail to Alta Lake,35.0,50.12304,-122.97851,2015-04-09,2015.0,4.0
2055279646,Wardner,32.0,49.41844,-115.42249,2017-05-19,2017.0,5.0
3187358461,Brenton Page Rd,20.0,49.027767,-123.85624,2020-07-25,2020.0,7.0
3584828160,"Elgin Heritage Park, South Surrey",20.0,49.064587,-122.84783,2021-11-06,2021.0,11.0
2109519654,West Kelowna--Mouth of Powers Creek,150.0,49.815502,-119.62352,2017-10-31,2017.0,10.0
2181985235,Burton--creek mouth,38.0,49.982136,-117.892914,2018-08-28,2018.0,8.0
4241815335,Abbotsford--Fishtrap Creek Park,20.0,49.056416,-122.34872,2022-06-16,2022.0,6.0
3613976023,Derek Doubleday Arboretum,2.0,49.100155,-122.63741,2021-02-03,2021.0,2.0
1748429623,Creston Valley Wildlife Centre,1.0,49.11972,-116.631386,2014-06-29,2014.0,6.0
1396808715,Kelowna--UBC Okanagan,350.0,49.93981,-119.39785,2015-11-11,2015.0,11.0
2149432929,Sunnygrove Terrace,26.0,48.50976,-123.36284,2018-03-22,2018.0,3.0
3676427014,Harrison Hot Springs--Beach & town,33.0,49.303905,-121.7848,2021-10-11,2021.0,10.0
2690264504,Port Alberni--Somass Estuary & sewage lagoons,48.0,49.25543,-124.837234,2019-07-13,2019.0,7.0
971376771,Texas Creek Road--Jones Pond--no public access,30.0,50.639664,-121.893654,2008-04-12,2008.0,4.0
2733045666,Surrey--Mud Bay Road (40th Ave),150.0,49.074963,-122.84358,2019-01-09,2019.0,1.0
579608667,Otter lake,120.0,50.4155,-119.25092,2003-02-11,2003.0,2.0
277788435,Sooke--Whiffin Spit Park,4.0,48.356464,-123.724594,2009-11-13,2009.0,11.0
2859893581,,,49.694254,-123.181449,2013-09-11,2013.0,9.0
1372465154,Lillooet--Pineridge Road,,50.684414,-121.914635,2015-06-02,2015.0,6.0
3652579524,Summerland--Trout Creek Point,64.0,49.569992,-119.62607,2021-03-15,2021.0,3.0
3269144874,Brouse Loop Road area,450.0,50.224186,-117.74737,2020-12-19,2020.0,12.0
961098972,Wilson Creek estuary,40.0,49.438385,-123.71275,2013-07-28,2013.0,7.0
1715161734,Royal Roads University,,48.430397,-123.47345,2016-02-13,2016.0,2.0
1780405550,"Pender Harbour --X-mass count area B , Garden Bay Rd - west",7.0,49.637516,-123.96965,2016-12-21,2016.0,12.0
277964598,Penticton--SS Sicamous/Riverside Park,45.0,49.50158,-119.61194,2010-01-06,2010.0,1.0
2190864299,Pipers Lagoon,16.0,49.223366,-123.94993,2018-06-27,2018.0,6.0
4239263288,Tunkwa Lake road,2.0,50.538383,-120.86438,2022-03-30,2022.0,3.0
29822095,Dentville Wetland (DW),,49.71089,-123.15183,2001,2001.0,
1191668800,Sechelt--town pier,35.0,49.470104,-123.75425,2014-10-12,2014.0,10.0
2105410538,Deer Lake Park,46.0,49.237682,-122.96786,2018-01-14,2018.0,1.0
2225893615,Shoreacres,2.0,49.435093,-117.52229,2018-12-28,2018.0,12.0
1180794430,Sunnygrove Terrace,,48.50976,-123.36284,2014-07-18,2014.0,7.0
3279775977,Kitty Islet,1.0,48.41033,-123.306984,2020-12-13,2020.0,12.0
1720781080,Lillooet--Seton Lake,5.0,50.668766,-121.98866,2016-03-12,2016.0,3.0
2074143451,Sechelt--Mission Point,13.0,49.44051,-123.72275,2017-06-09,2017.0,6.0
4210805752,Vancouver--New Brighton Park,9.0,49.290096,-123.03769,2022-05-31,2022.0,5.0
1168345810,Lardeau,4.0,50.144344,-116.949036,2013-05-12,2013.0,5.0
3225868419,North Van--Waterfront Park,6.0,49.31182,-123.085884,2020-03-04,2020.0,3.0
3170228429,"Auto selected 50.87643, -118.92761",20.0,50.87643,-118.92761,2020-06-30,2020.0,6.0
1794275402,Nanaimo--Buttertubs Marsh,29.0,49.170925,-123.970764,1996-07-18,1996.0,7.0
2704539595,Salmon Arm--Canoe Beach and Pier,70.0,50.755573,-119.23187,2019-08-30,2019.0,8.0
4333835361,North Vancouver--Maplewood Conservation Area,2.0,49.305843,-123.00034,2022-05-12,2022.0,5.0
2744748159,Victoria--Blenkinsop Lake,23.0,48.483448,-123.3605,2019-05-31,2019.0,5.0
3580838095,Deas Island Regional Park,293.0,49.11808,-123.06781,2021-08-15,2021.0,8.0
3677167047,Kelowna--Capital News Centre/Thomson Brook Pond,50.0,49.83433,-119.482,2021-03-31,2021.0,3.0
2149605340,Columbia Lake--South end,20.0,50.173985,-115.84328,2018-04-21,2018.0,4.0
3617296959,Richmond--Garden City Park,,49.164585,-123.12302,2021-10-12,2021.0,10.0
2195175773,Salmon Arm Bay (General),30.0,50.709747,-119.28043,2018-07-16,2018.0,7.0
2786562726,Liard River camp,2.0,59.428574,-125.942154,2011-06-22,2011.0,6.0
2105562277,"6060 Canada Avenue, Duncan, British Columbia, CA (48.79, -123.712)",7.0,48.79048,-123.71232,2017-10-13,2017.0,10.0
2764342918,Englishman River Estuary--Plummer Rd side,46.0,49.328693,-124.286736,2019-05-28,2019.0,5.0
579645405,Salmon Arm Bay (General),2.0,50.709747,-119.28043,2003-04-21,2003.0,4.0
4353833820,Deer Lake Park,58.0,49.237682,-122.96786,2022-08-21,2022.0,8.0
2662840211,"McLeod Pl, Langford CA-BC",8.0,48.418404,-123.53539,2019-01-24,2019.0,1.0
4233856694,230 Goward Rd,5.0,48.518906,-123.43045,2022-04-11,2022.0,4.0
1193190673,Iona Island Outer Pond,3.0,49.219166,-123.21167,2014-10-24,2014.0,10.0
167186409,Penticton--Three-mile beach,61.0,49.53767,-119.574,2008-02-02,2008.0,2.0
4205425839,Lumby--Rawlings Lake,60.0,50.27456,-118.87657,2022-03-22,2022.0,3.0
2735466237,West Vancouver--Kloochman Park,2.0,49.34037,-123.26826,2019-03-12,2019.0,3.0
4328466177,*Garden,1.0,48.453846,-123.41876,2022-02-05,2022.0,2.0
2787637049,Salmon Arm--Nature Bay Trail (To Christmas Island),100.0,50.70937,-119.27118,2019-09-01,2019.0,9.0
1368720177,Brunswick Point,,49.06782,-123.15257,2015-05-16,2015.0,5.0
580007114,Nelson--waterfront,,49.498905,-117.291245,2009-05-15,2009.0,5.0
3205626183,Sechelt--The Shores,83.0,49.499405,-123.790085,2020-12-31,2020.0,12.0
1787428821,Englishman River Estuary (general),31.0,49.330807,-124.2949,2006-10-02,2006.0,10.0
3620491790,"245 Schubert Drive, Kamloops, British Columbia, CA (50.685, -120.343)",6.0,50.68529,-120.3429,2021-04-26,2021.0,4.0
129975874,Maplewood 13,12.0,49.30423,-123.00275,1999-08-07,1999.0,8.0
1193479609,Island View Road,,48.5725,-123.38722,2014-10-28,2014.0,10.0
3512865183,Serpentine Fen,10.0,49.085617,-122.82616,2021-04-03,2021.0,4.0
2070987941,Wycliffe--Pighin Rd South,10.0,49.617687,-115.870575,2017-05-27,2017.0,5.0
2161839325,Shelley--Walrath Road and Marsh,1.0,53.99334,-122.631454,2018-05-13,2018.0,5.0
2201270205,Juniper Beach Kalamalka Park,3.0,50.203754,-119.286545,2018-08-09,2018.0,8.0
3166235823,Sooke--Whiffin Spit Park,2.0,48.356464,-123.724594,2020-05-02,2020.0,5.0
4348821963,"Welch, Hunt and Dooley Roads",200.0,48.551266,-123.37623,2022-03-06,2022.0,3.0
4275541734,Metchosin Golf Course--Pears Rd.,5.0,48.389618,-123.53179,2022-11-09,2022.0,11.0
4392301322,230 Rd South Taylor,2.0,56.073734,-120.66675,2022-04-09,2022.0,4.0
2169556583,"McIntyre Lake, Meldrum Road",3.0,51.972755,-122.35008,2018-05-19,2018.0,5.0
3160051460,Royal Roads University,54.0,48.430397,-123.47345,2020-05-16,2020.0,5.0
1150448411,Island View Beach,12.0,48.5751,-123.36811,2014-01-15,2014.0,1.0
1733887352,Saanich--Panama Flats,,48.476334,-123.4029,2016-05-04,2016.0,5.0
3747025241,,,49.205594,-123.967506,2022-03-22T15:19:14,2022.0,3.0
2077767109,Vancouver--English Bay Beach,55.0,49.28576,-123.1426,2017-06-26,2017.0,6.0
1393935223,Pacific Rim National Park--Kwisitis Visitor Centre,150.0,49.01335,-125.6747,2015-10-25,2015.0,10.0
4239692252,North Vancouver--Maplewood Conservation Area,3.0,49.305843,-123.00034,2022-04-02,2022.0,4.0
4278051210,Stanley Park--Second Beach,100.0,49.294765,-123.15,2022-01-16,2022.0,1.0
3638400990,Iona Island (General),1.0,49.22133,-123.2111,2021-09-24,2021.0,9.0
4129994663,,,49.289558,-122.490189,2023-06-02T13:16:08,2023.0,6.0
823269481,Blackie Spit (Incl. Dunsmuir Farm & Nicomekl estuary),5.0,49.059,-122.879,2012-10-25,2012.0,10.0
3688228056,"Elgin Heritage Park, South Surrey",21.0,49.064587,-122.84783,2021-10-31,2021.0,10.0
4340835346,Cleveland Dam,3.0,49.359715,-123.10829,2022-04-14,2022.0,4.0
1380078392,Sidney Spit (Gulf Islands National Park Reserve),30.0,48.643116,-123.33231,2015-08-01,2015.0,8.0
1713046991,Victoria--Cedar Hill Golf Course,33.0,48.45391,-123.34548,2016-01-30,2016.0,1.0
4228990326,Martindale Flats--McIntyre Reservoir,2.0,48.56911,-123.379814,2022-03-27,2022.0,3.0
972399800,hawkins lake,,51.83361,-121.0,2013-11-19,2013.0,11.0
2719078344,Juan de Fuca Provincial Park,4.0,48.527973,-124.44523,2019-08-04,2019.0,8.0
3764397028,,,49.242996,-121.956643,2022-04-25T13:37,2022.0,4.0
824293488,Princeton--sewage channels,1.0,49.460278,-120.48167,2012-05-01,2012.0,5.0
3606564597,"Bowker Creek, Victoria",8.0,48.43593,-123.326004,2021-01-29,2021.0,1.0
4311619301,Kelowna--Munson Pond,200.0,49.864048,-119.46036,2022-09-14,2022.0,9.0
823089074,Reifel Bird Sanctuary,,49.1,-123.185,2012-09-03,2012.0,9.0
2121676585,Vancouver--McCleery Golf Course,47.0,49.218468,-123.16704,2017-12-21,2017.0,12.0
3650838399,Maple Ridge--Maple Ridge Cemetery,2.0,49.218243,-122.628494,2021-11-03,2021.0,11.0
4358512609,North Vancouver--Maplewood Conservation Area,4.0,49.305843,-123.00034,2022-07-27,2022.0,7.0
210626314,"Vernon Commonage--MacKay Reservoir, east side",18.0,50.19735,-119.36051,2009-03-22,2009.0,3.0
950162147,"Swan Lake Nature Sanctuary, Victoria",20.0,48.464558,-123.3738,2013-05-02,2013.0,5.0
4219043741,Deltaport -- Tug Basin,11.0,49.024925,-123.15142,2022-02-13,2022.0,2.0
2222609445,Nanaimo River Estuary,1.0,49.1346,-123.8947,2018-10-26,2018.0,10.0
1385806973,Iona Island (General),25.0,49.22133,-123.2111,2015-09-07,2015.0,9.0
3516092033,Port Alberni--Somass Estuary & sewage lagoons,2.0,49.25543,-124.837234,2021-03-07,2021.0,3.0
4307070291,Reifel Bird Sanctuary,50.0,49.1,-123.185,2022-02-10,2022.0,2.0
1400660407,Sunnygrove Terrace,61.0,48.509697,-123.36299,2015-12-06,2015.0,12.0
3135964437,Creston--Duck Lake,50.0,49.222702,-116.62863,2020-02-15,2020.0,2.0
2696365943,Nanaimo--Buttertubs West Marsh,64.0,49.17138,-123.979126,2019-09-19,2019.0,9.0
3252588385,Fisherman's Wharf Dog Walk,6.0,48.42268,-123.382904,2020-03-01,2020.0,3.0
3593744617,"6172 Gale Ave S, Sechelt CA-BC 49.49676, -123.77112",17.0,49.496754,-123.77112,2021-02-27,2021.0,2.0
2656037031,Kelowna--Maude-Roxby Sanctuary,200.0,49.870506,-119.49701,2019-01-31,2019.0,1.0
4212892328,"Resthaven Park, Sidney",7.0,48.666374,-123.4104,2022-05-20,2022.0,5.0
1163045875,Breton Islands,3.0,50.127182,-125.181656,2014-04-07,2014.0,4.0
3150300479,Victoria Golf Course (restricted access),27.0,48.41365,-123.29973,2020-04-03,2020.0,4.0
3399352691,,,52.380328,-126.760884,2021-09-03T15:12,2021.0,9.0
2773830360,Creston--Channel Road,22.0,49.197857,-116.588974,2019-05-25,2019.0,5.0
167181043,Maplewood 00,,49.306435,-123.00205,2002-07-27,2002.0,7.0
210636449,Squamish - Finch Drive Trail,2.0,49.71768,-123.14446,2009-04-09,2009.0,4.0
2657040644,Bear Hill Rd,35.0,48.55069,-123.410934,2019-01-25,2019.0,1.0
580008979,"Swan Lake Nature Sanctuary, Victoria",25.0,48.464558,-123.3738,2009-09-05,2009.0,9.0
582784299,"Corefield Road, Duncan, BC",36.0,48.760517,-123.68271,2011-02-15,2011.0,2.0
4332435921,Vernon--Swan Lake grassland trail,320.0,50.295097,-119.27015,2022-11-10,2022.0,11.0
226962281,Duncan,,48.77981,-123.70133,2008-02-18,2008.0,2.0
3246112793,Saanich--Panama Flats,100.0,48.476334,-123.4029,2020-05-28,2020.0,5.0
3541052451,230 Goward Rd,2.0,48.518906,-123.43045,2021-09-15,2021.0,9.0
1731582125,Golden--Reflection Lake,34.0,51.283596,-116.94597,2016-04-10,2016.0,4.0
2091553809,White Rock Pier,16.0,49.01969,-122.80589,2017-09-10,2017.0,9.0
1743718388,Revelstoke,35.0,51.008247,-118.25409,2016-06-01,2016.0,6.0
4355532783,Nanaimo--Buttertubs West Marsh,3.0,49.17138,-123.979126,2022-06-01,2022.0,6.0
2066791428,Stanley Park--Lost Lagoon,,49.29563,-123.140305,2017-05-17,2017.0,5.0
3188508739,"Cy Hampson Park, North Saanich",185.0,48.62218,-123.40585,2020-09-30,2020.0,9.0
3626670883,Nelson--Old Taghum Bridge/Fisherman Rd,120.0,49.485622,-117.3873,2021-06-12,2021.0,6.0
3262374453,Castlegar--Selkirk College Trails,35.0,49.30996,-117.64791,2020-11-06,2020.0,11.0
3672839056,Horse Lake Rd - Flooded Field,2.0,51.585777,-120.951836,2021-05-23,2021.0,5.0
1794550592,Nanoose Estuary/Bay,56.0,49.26542,-124.18858,2004-04-28,2004.0,4.0
210607416,"Swan Lake Nature Sanctuary, Victoria",,48.464558,-123.3738,2009-02-13,2009.0,2.0
4344426091,"Boundary Bay - 104th St., Delta",50.0,49.076744,-122.93501,2022-09-18,2022.0,9.0
3212462828,Nicola Lake--NE End,20.0,50.24605,-120.455734,2000-04-20,2000.0,4.0
3506939387,"Swan Lake Nature Sanctuary, Victoria",2.0,48.464558,-123.3738,2021-02-27,2021.0,2.0
2069496312,Kelowna--Robert Lake,6.0,49.93562,-119.408905,2017-05-23,2017.0,5.0
1366555336,Sunshine Coast Botanical Gardens,2.0,49.48697,-123.80326,2015-05-09,2015.0,5.0
3292615645,Oliver--Okanagan River dykes,38.0,49.187428,-119.54902,2020-12-15,2020.0,12.0
2720462384,Columbia River Wasa Rd viewing site,7.0,49.74868,-115.72218,1978-06-03,1978.0,6.0
130056238,Nelway,,49.005787,-117.30429,2006-05-06,2006.0,5.0
4349261556,12331 255 Rd - yard and back field,2.0,56.26841,-120.714485,2022-04-25,2022.0,4.0
2747351530,Shoreacres,14.0,49.435093,-117.52229,2019-04-02,2019.0,4.0
3245428288,Douglas Lake,15.0,50.156,-120.23,2020-07-26,2020.0,7.0
3605488234,Seawall,11.0,49.175274,-123.94164,2021-01-15,2021.0,1.0
2735781722,French Creek mouth,2.0,49.3485,-124.360085,2019-03-16,2019.0,3.0
210599124,Trinity Western University,2.0,49.140835,-122.59611,2004-10-12,2004.0,10.0
3230008843,Lardeau,6.0,50.144344,-116.949036,2020-05-12,2020.0,5.0
3555047204,Esquimalt Lagoon,100.0,48.4294,-123.45837,2021-09-02,2021.0,9.0
579644295,Salmon Arm Bay (General),250.0,50.709747,-119.28043,2003-07-03,2003.0,7.0
1383030086,Creston--Duck Lake,20.0,49.222702,-116.62863,2015-03-10,2015.0,3.0
2722283420,Nelson--waterfront,198.0,49.498905,-117.291245,2019-11-13,2019.0,11.0
167195333,Musqueam Park,,49.229748,-123.19111,2008-03-24,2008.0,3.0
277983893,campbell river home,18.0,49.987434,-125.22822,2009-12-02,2009.0,12.0
1354485569,Little Campbell River,8.0,49.023968,-122.7197,2015-03-16,2015.0,3.0
3163001441,Vaseux Cliffs,100.0,49.299835,-119.52782,2020-05-31,2020.0,5.0
2052256311,Roberts Creek Jetty,13.0,49.41773,-123.64203,2017-04-04,2017.0,4.0
2165087060,Parksville--Coldwater Road,3.0,49.316742,-124.35159,2018-04-30,2018.0,4.0
3230910272,Penticton--SS Sicamous/Riverside Park,1.0,49.50158,-119.61194,2020-05-12,2020.0,5.0
3560388451,Port Moody--Shoreline Park,6.0,49.284065,-122.83489,2021-05-08,2021.0,5.0
4226322101,Nelson Transfer Station and Walkway,3.0,49.490383,-117.30718,2022-03-15,2022.0,3.0
2060401215,Agassiz--Tuyttens Rd. Wetlands,5.0,49.21883,-121.786964,2017-04-30,2017.0,4.0
823181242,Sumas Prairie,50.0,49.03922,-122.16162,2012-11-04,2012.0,11.0
1407936969,Lardeau,5.0,50.144344,-116.949036,2009-05-04,2009.0,5.0
2123869205,Serpentine Fen,4.0,49.085617,-122.82616,2018-01-24,2018.0,1.0
2119221829,Kelowna--yacht club,3.0,49.889008,-119.49945,2017-12-10,2017.0,12.0
2603279475,,,48.453609,-123.26519,2020-04-12T14:52,2020.0,4.0
3240009160,Home,22.0,49.414814,-115.45659,2020-03-24,2020.0,3.0
4211182613,Creekside Mills,1.0,49.035122,-122.0228,2022-06-11,2022.0,6.0
278166728,Pitt Meadows--Katzie Marsh,30.0,49.34596,-122.59344,2010-06-16,2010.0,6.0
3163244979,Creston--Duck Lake South Dyke/Nesting Area,57.0,49.2008,-116.611374,2020-05-24,2020.0,5.0
3522685702,Salmon Arm Bay (General),60.0,50.709747,-119.28043,2021-05-11,2021.0,5.0
974781288,Langdale,43.0,49.43388,-123.47894,2013-12-14,2013.0,12.0
1761699552,Central Saanich--ȾIKEL (Maber Flats),1150.0,48.572468,-123.43052,2016-09-16,2016.0,9.0
3568299067,Abbotsford--Willband Creek Park,20.0,49.07065,-122.28117,2021-05-19,2021.0,5.0
2654295901,Central Saanich--ȾIKEL (Maber Flats),85.0,48.572468,-123.43052,2019-01-10,2019.0,1.0
3279802239,Kelowna--Maude-Roxby Sanctuary,10.0,49.870506,-119.49701,2020-05-14,2020.0,5.0
1768875828,Stanley Park,20.0,49.302967,-123.143265,2016-10-23,2016.0,10.0
3566821000,Tsawwassen Ferry Terminal Jetty,1.0,49.015713,-123.117065,2021-09-09,2021.0,9.0
2656952200,Castlegar--Selkirk College Trails,6.0,49.30996,-117.64791,2019-01-27,2019.0,1.0
1191951415,Trinity Western University,1.0,49.140835,-122.59611,2013-07-03,2013.0,7.0
4299573835,Kelowna--Carney Pond,20.0,49.928032,-119.39085,2022-04-22,2022.0,4.0
3197197782,Richmond--Terra Nova,4.0,49.173206,-123.198616,2020-11-27,2020.0,11.0
1784543545,Oliver--Deadman Lake,50.0,49.091946,-119.55361,1985-03-12,1985.0,3.0
3550763965,Oliver--Okanagan River Trail north,6.0,49.227016,-119.54554,2021-02-22,2021.0,2.0
1738125404,Queens Bay--McEwan Point (Private),6.0,49.656162,-116.92969,2016-05-15,2016.0,5.0
4218112686,Rocky Point Bird Observatory (restricted access),72.0,48.3198,-123.54715,2022-09-19,2022.0,9.0
2183653238,"700 Government St, Victoria CA-BC (48.4214,-123.3688)",1.0,48.42141,-123.36878,2018-09-05,2018.0,9.0
581411851,Sooke River mouth,6.0,48.382763,-123.69887,2011-12-27,2011.0,12.0
4343284147,Burnaby Lake--Piper Spit,,49.242077,-122.93545,2022-05-29,2022.0,5.0
3211139124,Brouse Loop Road area,410.0,50.224186,-117.74737,2020-11-27,2020.0,11.0
822967512,Reifel Bird Sanctuary,50.0,49.1,-123.185,2012-09-30,2012.0,9.0
2051522217,Walk to mall,1.0,49.24807,-122.89958,2017-05-10,2017.0,5.0
824516387,Kelowna--Robert Lake,46.0,49.93562,-119.408905,2012-03-23,2012.0,3.0
3176689231,Burton--creek mouth,8.0,49.982136,-117.892914,2020-08-05,2020.0,8.0
4280140527,Cranbrook--Irrigation Fields South Pond,25.0,49.57221,-115.65754,2022-05-04,2022.0,5.0
2731401216,Victoria--Cedar Hill Golf Course,70.0,48.45391,-123.34548,2019-01-12,2019.0,1.0
2048590965,CA-BC-Colwood-Esquimalt Lagoon Migratory Bird Sanctuary - 48.4314x-123.4569,5.0,48.431404,-123.45688,2017-03-26,2017.0,3.0
3622593890,Victoria--Blenkinsop Lake,5.0,48.483448,-123.3605,2021-04-25,2021.0,4.0
2050974600,Oak Bay--Cattle Point,4.0,48.43874,-123.29416,2017-03-28,2017.0,3.0
4320637890,My house,2.0,49.501625,-124.25053,2022-02-23,2022.0,2.0
2172147819,Nakusp - mouth of creek and adjacent lakeshore,5.0,50.244366,-117.81583,2018-06-06,2018.0,6.0
2679895992,Kelowna--Munson Pond,2.0,49.864048,-119.46036,2019-06-12,2019.0,6.0
3607386325,East Sooke Regional Park--Beechey Head,2.0,48.31402,-123.653946,2021-05-09,2021.0,5.0
3607549717,Nanaimo--Buttertubs Marsh,30.0,49.170925,-123.970764,2021-02-22,2021.0,2.0
1710272526,Victoria -- 3941 Wilkinson Rd,6.0,48.47057,-123.411644,2016-01-13,2016.0,1.0
822010144,Blenkinsop--Galey Farms trail,80.0,48.476665,-123.35445,2012-09-06,2012.0,9.0
4334960941,Reifel Bird Sanctuary,900.0,49.1,-123.185,2005-06-12,2005.0,6.0
4214673365,Port Hardy Airport,19.0,50.68503,-127.375626,2022-09-24,2022.0,9.0
4096937617,,,49.14122,-122.604003,2023-04-24T10:18:10,2023.0,4.0
2149966193,Burnaby Lake--Rowing Pavilion,5.0,49.245266,-122.95886,2018-05-14,2018.0,5.0
2164325636,"Columbia Lake, British Columbia, CA",2.0,50.287663,-115.848915,2018-05-11,2018.0,5.0
